,Name,Address1,Address2,Address3,Address4,Postal,lng,lat,full_address
0,126 CONNECTION BAKERY,45,OWEN ROAD,01-297,,210045,103.8508245,1.315593,45 OWEN ROAD 01-297 
1,13 MILES,596B,SEMBAWANG ROAD,,SEMBAWANG SPRINGS ESTATE,758455,103.8249225,1.4409,596B SEMBAWANG ROAD  SEMBAWANG SPRINGS ESTATE
2,149 Cafe @ TechnipFMC (Mngd By The Wok People),149,GUL CIRCLE,,,629605,103.6722375,1.32102,149 GUL CIRCLE  
3,1983 A Taste of Nanyang,E1,WOODLANDS AVENUE 9,02,REPUBLIC POLYTECHNIC (Food Court A),738964,103.7834055,1.444689,E1 WOODLANDS AVENUE 9 02 REPUBLIC POLYTECHNIC (Food Court A)
4,1983 A Taste of Nanyang,2,Ang Mo Kio Drive,02-10,ITE College Central,567720,103.8570435,1.379052,2 Ang Mo Kio Drive 02-10 ITE College Central
5,1983 A Taste of Nanyang,70,STAMFORD ROAD,01-21,SINGAPORE MANAGEMENT UNIVERSITY,178901,103.8501045,1.296657,70 STAMFORD ROAD 01-21 SINGAPORE MANAGEMENT UNIVERSITY
6,1983 Cafe Nanyang,60,AIRPORT BOULEVARD,0  2 6-018-09,CHANGI AIRPORT TERMINAL 2,819643,103.9895145,1.3541940000000001,60 AIRPORT BOULEVARD 0  2 6-018-09 CHANGI AIRPORT TERMINAL 2
7,1983 Coffee & Toast,1,MARITIME SQUARE,02-21,"HARBOURFRONT CENTRE, TRANSIT AREA",099253,103.819437,1.26306,"1 MARITIME SQUARE 02-21 HARBOURFRONT CENTRE, TRANSIT AREA"
8,1983 Coffee & Toast,,1 Jurong East Street 21,01-01,"Tower C, Jurong Community Hospital",609606,103.7442825,1.334826," 1 Jurong East Street 21 01-01 Tower C, Jurong Community Hospital"
9,1983 Coffee & Toast,1,JOO KOON CIRCLE,02-32/33,FAIRPRICE HUB,629117,103.67899,1.32702,1 JOO KOON CIRCLE 02-32/33 FAIRPRICE HUB
10,1983 Coffee & Toast,1,MARITIME SQUARE,02-21,"HARBOURFRONT CENTRE, TRANSIT AREA",099253,103.819437,1.26306,"1 MARITIME SQUARE 02-21 HARBOURFRONT CENTRE, TRANSIT AREA"
11,1983 Coffee & Toast,2,SIMEI STREET 3,01-09/10,CHANGI GENERAL HOSPITAL,529889,103.9493385,1.340091,2 SIMEI STREET 3 01-09/10 CHANGI GENERAL HOSPITAL
12,21 On Rajah,1,JALAN RAJAH,01,DAYS HOTEL,329133,103.8475999994,1.3269000366,1 JALAN RAJAH 01 DAYS HOTEL
13,4 Fingers Crispy Chicken,50,Jurong Gateway Road,01-15A,JEM Shopping Mall,608549,103.743261,1.332549,50 Jurong Gateway Road 01-15A JEM Shopping Mall
14,4 Fingers Crispy Chicken,9,BISHAN PLACE,01-32,JUNCTION 8 SHOPPING CENTRE,579837,103.8485655,1.350711,9 BISHAN PLACE 01-32 JUNCTION 8 SHOPPING CENTRE
15,4 Fingers Crispy Chicken,930,Yishun Avenue 2,01-15,Northpoint Shopping Centre,769098,103.835979,1.429344,930 Yishun Avenue 2 01-15 Northpoint Shopping Centre
16,4 Fingers Crispy Chicken,277,ORCHARD ROAD,0 1-04/05,,238858,103.839327,1.300491,277 ORCHARD ROAD 0 1-04/05 
17,4 Fingers Crispy Chicken,65,AIRPORT BOULEVARD,B2-02,CHANGI AIRPORT TERMINAL 3,819663,103.9851675,1.354374,65 AIRPORT BOULEVARD B2-02 CHANGI AIRPORT TERMINAL 3
18,4 Fingers Crispy Chicken,80,Airport Boulevard,03-47,Changi Airport Terminal 1,819642,103.990842,1.362537,80 Airport Boulevard 03-47 Changi Airport Terminal 1
19,4 Fingers Crispy Chicken,2,ORCHARD TURN,B  4-06/06A,ION ORCHARD,238801,103.831722,1.30437,2 ORCHARD TURN B  4-06/06A ION ORCHARD
20,4 Fingers Crispy Chicken,68,ORCHARD ROAD,B1-07,PLAZA SINGAPURA,238839,103.8449835,1.3000319999999999,68 ORCHARD ROAD B1-07 PLAZA SINGAPURA
21,4 Fingers Crispy Chicken,1,WOODLANDS SQUARE,0  1-38/39,CAUSEWAY POINT,738099,103.785984,1.435878,1 WOODLANDS SQUARE 0  1-38/39 CAUSEWAY POINT
22,4 Fingers Crispy Chicken,10,Tampines Central 1 #01 39/40/K3/K4,,Tampines 1,529536,103.94531,1.35377,10 Tampines Central 1 #01 39/40/K3/K4  Tampines 1
23,4 Fingers Crispy Chicken,302,Tiong Bahru Road,01-105,Tiong Bahru Plaza,168732,103.827809925,1.2865800255,302 Tiong Bahru Road 01-105 Tiong Bahru Plaza
24,4 Fingers Crispy Chicken,1,JURONG WEST CENTRAL 2,03-34,JURONG POINT SHOPPING CENTRE,648886,103.7067075,1.339632,1 JURONG WEST CENTRAL 2 03-34 JURONG POINT SHOPPING CENTRE
25,498 Yong Tau Foo (S7) @ 7 Stars,498,JURONG WEST STREET 41,01-426,,640498,103.724172,1.348731,498 JURONG WEST STREET 41 01-426 
26,7 Star Restaurant (Indian/Malay Food),768,UPPER SERANGOON ROAD,02-03,,534636,103.8789495,1.35423,768 UPPER SERANGOON ROAD 02-03 
27,A Poke Theory,27,Boon Tat Street,,,069623,103.8486555,1.281294,27 Boon Tat Street  
28,A Poke Theory,1,Lower Kent Ridge Road,02-12,One@Kent Ridge,119082,103.78396,1.29355,1 Lower Kent Ridge Road 02-12 One@Kent Ridge
29,A Poke Theory,,5 Straits View,B2-52,"Marina One, The heart",018935,103.8529395,1.277307," 5 Straits View B2-52 Marina One, The heart"
30,A Poke Theory,7,Fraser Street,01-36/37,Duo Galleria,189356,103.8584799889,1.2993500366,7 Fraser Street 01-36/37 Duo Galleria
31,A SPOONFUL OF SUGAR,4,CHANGI VILLAGE ROAD,01-2072,,500004,103.987494,1.389105,4 CHANGI VILLAGE ROAD 01-2072 
32,A1 AZEE WESTERN FOOD (S7) @ SOON HONG EATING HOUSE (A'POSH BIZHUB),1,Yishun Industrial Street 1,01-12,A'posh Bizhub,768160,103.842423,1.437057,1 Yishun Industrial Street 1 01-12 A'posh Bizhub
33,Adam Chicken,503,WEST COAST DRIVE,01-28,Ayer Rajah Food Centre,120503,103.7597535,1.311804,503 WEST COAST DRIVE 01-28 Ayer Rajah Food Centre
34,AH HUAT,2,BUKIT BATOK WEST AVENUE 7,01-09C,HOMETEAM NS,659003,103.7480355,1.366317,2 BUKIT BATOK WEST AVENUE 7 01-09C HOMETEAM NS
35,Ah Meng Bistro,80,Mandai Lake Road,,Singapore Zoological Restaurant,729826,103.790772,1.403136,80 Mandai Lake Road  Singapore Zoological Restaurant
36,Ah Meng Kitchen,80,Mandai Lake Road,,SINGAPORE ZOOLOGICAL GARDEN,729826,103.790772,1.403136,80 Mandai Lake Road  SINGAPORE ZOOLOGICAL GARDEN
37,AJ Delights,120,BUKIT MERAH LANE 1,01-82&83,Alexandra Village Food Centre,150120,103.8046455,1.286388,120 BUKIT MERAH LANE 1 01-82&83 Alexandra Village Food Centre
38,Ajuma Japanese & Korean Cuisine (R10) @ Staff Canteen By Kopitiam Changi Airport Terminal 2,60,AIRPORT BOULEVARD,3M-10,CHANGI AIRPORT TERMINAL 2,819643,103.9895145,1.3541940000000001,60 AIRPORT BOULEVARD 3M-10 CHANGI AIRPORT TERMINAL 2
39,AL AZHAR,201D,TAMPINES STREET 21,01-1155,,524201,103.953321,1.352223,201D TAMPINES STREET 21 01-1155 
40,AL AZHAR,11/12,CHEONG CHIN NAM ROAD,,,599746,103.7751705,1.342899,11/12 CHEONG CHIN NAM ROAD  
41,AL MADINA Famous Prata Corner,155,Bukit Batok St 11,01-324,,650155,103.7436795,1.348056,155 Bukit Batok St 11 01-324 
42,AL MADINA Famous Prata Corner,177,Bukit Batok West Ave 8,01-247,,650177,103.74174,1.346346,177 Bukit Batok West Ave 8 01-247 
43,AL MADINA Famous Prata Corner,257,Bangkit Road Bukit Panjang New Town,01-61,Zhenghua 257 Coffee House,670257,103.773213,1.378512,257 Bangkit Road Bukit Panjang New Town 01-61 Zhenghua 257 Coffee House
44,AL MADINA Famous Prata Corner,167,Woodlands St 11,01-07,,730167,103.775886,1.433592,167 Woodlands St 11 01-07 
45,AL MADINA Famous Prata Corner,635C,Senja Road,01-01,,673635,103.758327,1.38654,635C Senja Road 01-01 
46,ALL GOOD GOURMET,23,SERANGOON CENTRAL,B2-49,NEX,556083,103.872294,1.350765,23 SERANGOON CENTRAL B2-49 NEX
47,ALL GOOD GOURMET,23,SERANGOON CENTRAL,B2-49,NEX,556083,103.872294,1.350765,23 SERANGOON CENTRAL B2-49 NEX
48,AMETHYST PASTRY & CAKES,524A,JELAPANG ROAD,02-03/04,GREENRIDGE SHOPPING CENTRE,671524,103.7662605,1.385208,524A JELAPANG ROAD 02-03/04 GREENRIDGE SHOPPING CENTRE
49,Amigo's Food Pte Ltd,131,MARSILING RISE,01-206,,730131,103.778613,1.438479,131 MARSILING RISE 01-206 
50,Amigo's Food Pte Ltd,444,PASIR RIS DRIVE 6,01-102,,510444,103.957488,1.369998,444 PASIR RIS DRIVE 6 01-102 
51,Amigo's Food Pte Ltd,878C,TAMPINES AVENUE 8,01-66,,523878,103.929363,1.35126,878C TAMPINES AVENUE 8 01-66 
52,Amigo's Food Pte Ltd,573,WOODLAND DRIVE 16,01-01,,730573,103.7985075,1.431099,573 WOODLAND DRIVE 16 01-01 
53,Amigo's Food Pte Ltd,5,UPPER BOON KENG ROAD,01-22,MULTI STOREY CAR PARK,380005,103.861377,1.3172760000000001,5 UPPER BOON KENG ROAD 01-22 MULTI STOREY CAR PARK
54,ANDES,328,Joo Chiat Road,01-01,Joo Chiat Apartments,427585,103.905477,1.305783,328 Joo Chiat Road 01-01 Joo Chiat Apartments
55,ANDES,5,CHANGI VILLAGE ROAD,01-2001,,500005,103.986828,1.388844,5 CHANGI VILLAGE ROAD 01-2001 
56,ANDES,10,Airport Boulevard,02-202,Changi Airport Terminal 4,819665,103.982724,1.339038,10 Airport Boulevard 02-202 Changi Airport Terminal 4
57,ANDES,750,Chai Chee Road,01-30,Technopark @ Chai Chee,469000,103.922109,1.323666,750 Chai Chee Road 01-30 Technopark @ Chai Chee
58,A-Po Hokkien Mee (MR1) @ The Food Market Century Square,2,TAMPINES CENTRAL 5,03-19,CENTURY SQUARE,529509,103.9437855,1.352358,2 TAMPINES CENTRAL 5 03-19 CENTURY SQUARE
59,A-POH KITCHEN PTE LTD,354,CLEMENTI AVENUE 2,01-223,CLEMENTI AVENUE 2 SHOPPING CENTRE,120354,103.7708595,1.313532,354 CLEMENTI AVENUE 2 01-223 CLEMENTI AVENUE 2 SHOPPING CENTRE
60,ARIFF'S RESTAURANT,71,KALLANG BAHRU,01-529B,,330071,103.8703905,1.320993,71 KALLANG BAHRU 01-529B 
61,ARIFF'S RESTAURANT,278,BUKIT BATOK EAST AVE 3,01-365,,650278,103.7577735,1.347849,278 BUKIT BATOK EAST AVE 3 01-365 
62,Arnold's Fried Chicken (S) Pte Ltd,21,HOUGANG STREET 51,01-49,HOUGANG GREEN SHOPPING MALL,538719,103.887846,1.379322,21 HOUGANG STREET 51 01-49 HOUGANG GREEN SHOPPING MALL
63,Arnold's Fried Chicken (S) Pte Ltd,60,JURONG WEST CENTRAL 3,01-05,The Frontier CC,648346,103.7045385,1.34055,60 JURONG WEST CENTRAL 3 01-05 The Frontier CC
64,Arnold's Fried Chicken (S) Pte Ltd,51,YISHUN CENTRAL 1,01-04,YISHUN 10 CINEMA CINEPLEX,768794,103.83656,1.4297300000000002,51 YISHUN CENTRAL 1 01-04 YISHUN 10 CINEMA CINEPLEX
65,Arnold's Fried Chicken (S) Pte Ltd,810,GEYLANG ROAD,0  2-99/101,CITY PLAZA,409286,103.8936285,1.314612,810 GEYLANG ROAD 0  2-99/101 CITY PLAZA
66,Arnold's Fried Chicken (S) Pte Ltd,215,BEDOK NORTH STREET 1,01-83,,460215,103.9334985,1.3260779999999999,215 BEDOK NORTH STREET 1 01-83 
67,AROMA KAMPUNG PTE LTD,2,JOO CHIAT ROAD,03-1111,JOO CHIAT COMPLEX,420002,103.898763,1.315539,2 JOO CHIAT ROAD 03-1111 JOO CHIAT COMPLEX
68,ArtBites TRCC,5,WOODLANDS AVENUE 9,01-01,REPUBLIC POLYTECHNIC,738962,103.7834055,1.444689,5 WOODLANDS AVENUE 9 01-01 REPUBLIC POLYTECHNIC
69,"ASAM TREE CAFE, BAKERY & RESTAURANT",712,ANG MO KIO AVENUE 6,01-4056,,560712,103.847085,1.371411,712 ANG MO KIO AVENUE 6 01-4056 
70,Asam Tree Malay Cuisine (S5) @ NTUC Foodfare KTPH,90,Yishun Central,01-12,Khoo Teck Puat Hospital,768828,103.83827,1.4238300000000002,90 Yishun Central 01-12 Khoo Teck Puat Hospital
71,ASAM TREE SNACK & NASI LEMAK,100,HOUGANG AVENUE 10,01-03,KANG KAR MALL,538767,103.8942495,1.371708,100 HOUGANG AVENUE 10 01-03 KANG KAR MALL
72,ASIAN COUNTER @ CAROUSEL,25,SCOTTS ROAD,,SCOTTSWALK,228220,103.8321045,1.307169,25 SCOTTS ROAD  SCOTTSWALK
73,ASIAN DELIGHT (S4) @ FLAVOURS BY HESED&EMET,21,Tampines Ave 1,01-00,Temasek Polytechnic (Blk 23A),529757,103.93268,1.34654,21 Tampines Ave 1 01-00 Temasek Polytechnic (Blk 23A)
74,ASIAN DELIGHTS @ AQUAMARINE,6,RAFFLES BOULEVARD,04,MARINA SQUARE,039594,103.8575385,1.291275,6 RAFFLES BOULEVARD 04 MARINA SQUARE
75,ASIAN FOOD CORNER @ AMC,2,STAMFORD ROAD,,FAIRMONT SINGAPORE & SWISSOTEL THE STAMFORD,178882,103.8532725,1.293291,2 STAMFORD ROAD  FAIRMONT SINGAPORE & SWISSOTEL THE STAMFORD
76,Australia Design Western Food (S2)@ Mr Teh Tarik Geylang Serai,1,GEYLANG SERAI,01-210,,402001,103.8982275,1.316736,1 GEYLANG SERAI 01-210 
77,Awal Western and Thai Steamboat (S1) @ Awal Makan Place,60,PASIR RIS DRIVE 3,01,ARANDA COUNTRY CLUB,519497,103.9534425,1.375704,60 PASIR RIS DRIVE 3 01 ARANDA COUNTRY CLUB
78,Ayam Bakar Ojolali,304,ORCHARD ROAD,03-39,LUCKY PLAZA,238863,103.8337245,1.304307,304 ORCHARD ROAD 03-39 LUCKY PLAZA
79,Ayam Bakar Ojolali,304,ORCHARD ROAD,03-43,LUCKY PLAZA,238863,103.8337245,1.304307,304 ORCHARD ROAD 03-43 LUCKY PLAZA
80,AYAM PENYET,676,WOODLANDS DRIVE 71,02,KAMPUNG ADMIRALTY HAWKER CENTRE,730676,103.8007215,1.439748,676 WOODLANDS DRIVE 71 02 KAMPUNG ADMIRALTY HAWKER CENTRE
82,AYAM PENYET (S5) @ FORK AND SPOON WOODLANDS MART,768,WOODLANDS AVENUE 6,01,WOODLANDS MART,730768,103.7981295,1.4456609999999999,768 WOODLANDS AVENUE 6 01 WOODLANDS MART
83,Ayam Penyet (S6) @ Mr Teh Tarik Eating House,204,BEDOK NORTH STREET 1,01-435,,460204,103.9299975,1.326357,204 BEDOK NORTH STREET 1 01-435 
85,AYAM PENYET PRESIDENT,304,ORCHARD ROAD,0 3-36/37,LUCKY PLAZA,238863,103.8337245,1.304307,304 ORCHARD ROAD 0 3-36/37 LUCKY PLAZA
86,AYAM PENYET PRESIDENT,2,JURONG EAST CENTRAL 1,01-05,JCUBE,609731,103.7401785,1.333269,2 JURONG EAST CENTRAL 1 01-05 JCUBE
87,AYAM PENYET PRESIDENT,1,Stadium Place,01-23,,397628,103.873149,1.303074,1 Stadium Place 01-23 
88,AYAM PENYET PRESIDENT,23,Serangoon Central 1,B1-13/14,,556083,103.872294,1.350765,23 Serangoon Central 1 B1-13/14 
89,AYAM PENYET PRESIDENT,2,TAMPINES CENTRAL 5,B1-20,CENTURY SQUARE,529509,103.9437855,1.352358,2 TAMPINES CENTRAL 5 B1-20 CENTURY SQUARE
90,AYAM PENYET PRESIDENT,930,YISHUN AVENUE 2,B1-54,NORTHPOINT,769098,103.835979,1.429344,930 YISHUN AVENUE 2 B1-54 NORTHPOINT
91,AYAM PENYET UNCLE PENYET,728,ANG MO KIO AVENUE 6,01-4200,,560728,103.845681,1.372626,728 ANG MO KIO AVENUE 6 01-4200 
92,BABALICIOUS,1000,EAST COAST PARKWAY,01-02,MARINE COVE,449876,103.9133925,1.3016429999999999,1000 EAST COAST PARKWAY 01-02 MARINE COVE
93,Bagus,321,JOO CHIAT PLACE,01-10,PARKWAY EAST HOSPITAL,427990,103.909068,1.315116,321 JOO CHIAT PLACE 01-10 PARKWAY EAST HOSPITAL
94,Bagus,276 / 278,CHANGI ROAD,,,419756,103.90626,1.317582,276 / 278 CHANGI ROAD  
95,BAGUS CAFE @ RWS -RWS (Mngd by Compass Group),26,SENTOSA GATEWAY,B1-133,,098138,103.821111,1.2565439999999999,26 SENTOSA GATEWAY B1-133 
96,Baker's Heart,1,IRVING PLACE,02-04,The Commerze,369546,103.886433,1.336239,1 IRVING PLACE 02-04 The Commerze
97,Baker's Oven Pattisieries,2761,ANG MO KIO AVENUE 5,,SPC PETROL KIOSK,569866,103.8360400294,1.3788300622,2761 ANG MO KIO AVENUE 5  SPC PETROL KIOSK
98,Baker's Oven Pattisieries,91,Sengkang East Way,,SPC Petrol Station,544885,103.8989900255,1.3911899634,91 Sengkang East Way  SPC Petrol Station
99,Bakers World,15-8,JALAN RIANG,,SERANGOON PARK,358987,103.8677985,1.347219,15-8 JALAN RIANG  SERANGOON PARK
100,BAKERY STALL (S3) @ DIGNITY KITCHEN,267,SERANGOON AVENUE 3,,,550267,103.870953,1.353168,267 SERANGOON AVENUE 3  
101,Bali Thai Restaurant,391A,ORCHARD ROAD,05-29,NGEE ANN CITY TOWER A,238873,103.83425,1.30245,391A ORCHARD ROAD 05-29 NGEE ANN CITY TOWER A
102,Bali Thai Restaurant,1,WOODLANDS SQUARE,05-05,CAUSEWAY POINT,738099,103.785984,1.435878,1 WOODLANDS SQUARE 05-05 CAUSEWAY POINT
103,Bali Thai Restaurant,23,Serangoon Central,02-13,Nex,556083,103.872294,1.350765,23 Serangoon Central 02-13 Nex
104,Bali Thai Restaurant,33,Sengkang West Ave,02-01/02,The Seletar Mall,797653,103.876236,1.3914,33 Sengkang West Ave 02-01/02 The Seletar Mall
105,Bali Thai Restaurant,3,TEMASEK BOULEVARD,B1-121,SUNTEC CITY MALL,038983,103.859307,1.295001,3 TEMASEK BOULEVARD B1-121 SUNTEC CITY MALL
106,Bali Thai Restaurant,2,JURONG EAST STREET 21,01-21,IMM BUILDING,609601,103.7464605,1.334988,2 JURONG EAST STREET 21 01-21 IMM BUILDING
107,Bali Thai Restaurant,83,Punggol Central,B1-13,Waterway Point (East Wing),878761,103.9018000589,1.4057800345,83 Punggol Central B1-13 Waterway Point (East Wing)
108,Bali Thai Restaurant,26,Sentosa Gateway,B1-221,The Forum @ Resorts World Sentosa,098138,103.821111,1.2565439999999999,26 Sentosa Gateway B1-221 The Forum @ Resorts World Sentosa
109,BAN MIAN & FISH SOUP (S1) @ The Short Circuit Temasek Polytechnic,21,TAMPINES AVENUE 1,,"Temasek Polytechnic, School of Engineering",529757,103.93268,1.34654,"21 TAMPINES AVENUE 1  Temasek Polytechnic, School of Engineering"
110,Ban Mian & Fish Soup (S8) @ Cook House By Koufu,1,Pasir Ris Central St 3,03-01/02,WHITE SANDS,518457,103.9496355,1.372365,1 Pasir Ris Central St 3 03-01/02 WHITE SANDS
111,Ban Mian (S12) @ Matrix Cafeteria ITE College West,1,Choa Chu Kang Grove,02-01,BLK 3 ITE COLLEGE WEST,688236,103.7515005,1.374309,1 Choa Chu Kang Grove 02-01 BLK 3 ITE COLLEGE WEST
112,Ban Mian (S2) @ Fork & Spoon Toa Payoh,470,LORONG 6 TOA PAYOH,02-70,HDB HUB,310470,103.8493395,1.332036,470 LORONG 6 TOA PAYOH 02-70 HDB HUB
113,Ban Mian (S6) @ Cantine Jurong Point,1,JURONG WEST CENTRAL 2,B   1 -42/43/44,JURONG POINT,648886,103.7067075,1.339632,1 JURONG WEST CENTRAL 2 B   1 -42/43/44 JURONG POINT
114,Ban Mian (S6) @ Kopitiam Singapore Post,10,EUNOS ROAD 8,03-104,SINGAPORE POST CENTRE,408600,103.894506,1.318959,10 EUNOS ROAD 8 03-104 SINGAPORE POST CENTRE
115,Ban Mian (S7) @ Kopitiam Vivo City,1,HARBOURFRONT WALK,B2-39,VIVO CITY,098585,103.822398,1.264383,1 HARBOURFRONT WALK B2-39 VIVO CITY
116,Ban Mian Congee (S8) @ Cantine Paya Lebar Square,60,Paya Lebar Road,B1-51,Paya Lebar Square,409051,103.89258,1.3188149999999998,60 Paya Lebar Road B1-51 Paya Lebar Square
117,Ban Mian Fish Soup (S9) @ KouFu,10,SINARAN DRIVE,04-14,SQUARE 2,307506,103.8442275,1.320687,10 SINARAN DRIVE 04-14 SQUARE 2
118,Ban Mian/Fish Soup (S3)@Fork & Spoon Woodlands Mart,768,WOODLANDS AVENUE 6,,WOODLANDS MART,730768,103.7981295,1.4456609999999999,768 WOODLANDS AVENUE 6  WOODLANDS MART
119,Banana Leaf Curry (S4) @ Kopitiam,65,"AIRPORT BOULEVARD, CHANGI AIRPORT TERMINAL 3",B2-03,BASEMENT LEVEL 2 SOUTH,819663,103.9851675,1.354374,"65 AIRPORT BOULEVARD, CHANGI AIRPORT TERMINAL 3 B2-03 BASEMENT LEVEL 2 SOUTH"
121,BAR-B-Q TONIGHT,10,ROBERTS LANE,,,218289,103.853889,1.310544,10 ROBERTS LANE  
122,BBQ Wholesale Centre Pte Ltd,81,FRANKEL AVENUE,,FRANKEL ESTATE,458209,103.9191345,1.315251,81 FRANKEL AVENUE  FRANKEL ESTATE
123,BEBEK GORENG PAK NDUT,304,ORCHARD ROAD,0  1  -42/43/44,LUCKY PLAZA,238863,103.8337245,1.304307,304 ORCHARD ROAD 0  1  -42/43/44 LUCKY PLAZA
124,BEBEK GORENG PAK NDUT,10,TAMPINES CENTRAL 1,01-58,TAMPINES ONE,529536,103.9450185,1.35432,10 TAMPINES CENTRAL 1 01-58 TAMPINES ONE
125,Beef Noodles (S7) @ Cantine Jurong Point,1,JURONG WEST CENTRAL 2,b  1  -42/43/44,JURONG POINT,648886,103.7067075,1.339632,1 JURONG WEST CENTRAL 2 b  1  -42/43/44 JURONG POINT
126,Belinda's Pancake,341,ANG MO KIO AVENUE 1,01-27,,560341,103.8482415,1.364103,341 ANG MO KIO AVENUE 1 01-27 
127,BEN BAKER,258,BUKIT PANJANG RING ROAD,01-60,BUKIT PANJANG NEW TOWN,670258,103.7731545,1.3779,258 BUKIT PANJANG RING ROAD 01-60 BUKIT PANJANG NEW TOWN
128,Better Baker,213,BEDOK NORTH STREET 1,01-109,,460213,103.932639,1.326357,213 BEDOK NORTH STREET 1 01-109 
129,Beverage Section @ Straits Kitchen,10,Scotts Road,,Grand Hyatt Singapore,228211,103.83294,1.30652,10 Scotts Road  Grand Hyatt Singapore
130,"Beverage, Dessert, Fruit, Dim Sum (S1) @ Staff Canteen by Kopitiam Changi Airport Terminal 2",60,AIRPORT BOULEVARD,3M-610,CHANGI AIRPORT TERMINAL 2,819643,103.9895145,1.3541940000000001,60 AIRPORT BOULEVARD 3M-610 CHANGI AIRPORT TERMINAL 2
131,BEVERAGE-DIM SUM-CHICKEN RICE (S4) @ AWAL MAKAN PLACE,60,PASIR RIS DRIVE 3,01,ARANDA COUNTRY CLUB,519497,103.9534425,1.375704,60 PASIR RIS DRIVE 3 01 ARANDA COUNTRY CLUB
132,Beverages (S1) @ Kopitiam Vivo City,1,HARBOURFRONT WALK,B2-39,VIVO CITY,098585,103.822398,1.264383,1 HARBOURFRONT WALK B2-39 VIVO CITY
133,Beverages Corner (B2) @ Takashimaya (Mngd by The Wok People),391,ORCHARD ROAD,,NGEE ANN CITY,238872,103.834674,1.302426,391 ORCHARD ROAD  NGEE ANN CITY
134,Beverages Desserts (S1) @ Bagus Causeway Point,1,WOODLANDS SQUARE,07-03,CAUSEWAY POINT,738099,103.785984,1.435878,1 WOODLANDS SQUARE 07-03 CAUSEWAY POINT
135,"Beverages, Fruits, Dessert & Value Set (S1) @ On The Ridge By Kopitiam NUH",1,Lower Kent Ridge Road,05-01,One @ Kent Ridge,119082,103.78396,1.29355,1 Lower Kent Ridge Road 05-01 One @ Kent Ridge
136,Beverages/Fried Delight (S5)@My Kampung Heartbeat@Bedok,11,Bedok North Street 1,01-28/29,Heartbeat @ Bedok,469662,103.9326099478,1.3273499222,11 Bedok North Street 1 01-28/29 Heartbeat @ Bedok
137,Beyond Pancakes,180,KITCHENER ROAD,02-35/36,City Square Mall,208539,103.856625,1.31139,180 KITCHENER ROAD 02-35/36 City Square Mall
138,BIBIK CATERERS PTE. LTD.,2,Pandan Crescent,02-00,Inchcape Centre / Borneo Motors,128462,103.7609299195,1.3019800594,2 Pandan Crescent 02-00 Inchcape Centre / Borneo Motors
139,Big Fish Small Fish,200,Victoria Street,04-05,Bugis Junction,188021,103.8553875,1.298988,200 Victoria Street 04-05 Bugis Junction
140,Big Fish Small Fish,1,Northpoint Drive,02-132/133,South Wing of Northpoint City,768019,103.8361725,1.427868,1 Northpoint Drive 02-132/133 South Wing of Northpoint City
141,Big Fish Small Fish,,50 Punggol East,01-K35,,828826,103.916745,1.394676, 50 Punggol East 01-K35 
142,Big Fish Small Fish,4,TAMPINES CENTRAL 5,B1-K3,TAMPINES MALL,529510,103.944663,1.352592,4 TAMPINES CENTRAL 5 B1-K3 TAMPINES MALL
143,Bingsu Corner Korean Dessert @ fusion spoon,1,CLUNY ROAD,B1-00,NATIONAL PARKS BOARD,259569,103.8163455,1.3125149999999999,1 CLUNY ROAD B1-00 NATIONAL PARKS BOARD
144,Bizlink Cafe,10,BUANGKOK VIEW,,INSTITUTE OF MENTAL HEALTH,539747,103.88474,1.38165,10 BUANGKOK VIEW  INSTITUTE OF MENTAL HEALTH
145,BLACK & WHITE DELIGHT,18,MARINA GARDENS DRIVE,,SATAY BY THE BAY (S8),018953,103.86432,1.281816,18 MARINA GARDENS DRIVE  SATAY BY THE BAY (S8)
146,BLACK & WHITE DELIGHT,18,MARINA GARDENS DRIVE,,SATAY BY THE BAY (S11C),018953,103.86432,1.281816,18 MARINA GARDENS DRIVE  SATAY BY THE BAY (S11C)
147,Blisshouse Theme Restaurant,6,EU TONG SEN STREET,0  3--13A-21,Clarke Quay The Central (Yellow Zone),059817,103.84625,1.2889,6 EU TONG SEN STREET 0  3--13A-21 Clarke Quay The Central (Yellow Zone)
148,Blue Jasmine @ Park Hotel Farrer Park,10,Farrer Park Station Road,05,Park Hotel Farrer Park,217564,103.85454,1.31209,10 Farrer Park Station Road 05 Park Hotel Farrer Park
149,BOLEH! BOLEH!,451,JURONG WEST STREET 42,01-174,,640451,103.718502,1.351881,451 JURONG WEST STREET 42 01-174 
150,BOON LAY CAFE,301,BOON LAY WAY,01-12/13,BOON LAY MRT STATION,649846,103.7060865,1.338606,301 BOON LAY WAY 01-12/13 BOON LAY MRT STATION
151,B'Pastriez,9,TELOK BLANGAH CRESCENT,01-119,,090009,103.81941,1.277406,9 TELOK BLANGAH CRESCENT 01-119 
152,Brastagi Nasi Padang & Café,20,HAVELOCK ROAD,01-07,CENTRAL SQUARE,059765,103.843035,1.288062,20 HAVELOCK ROAD 01-07 CENTRAL SQUARE
153,BREAD FRESH,257,BANGKIT ROAD,01-57,BUKIT PANJANG NEW TOWN,670257,103.773213,1.378512,257 BANGKIT ROAD 01-57 BUKIT PANJANG NEW TOWN
154,BREAD FRESH,103,YISHUN RING ROAD,01-65,,760103,103.8288915,1.4313690000000001,103 YISHUN RING ROAD 01-65 
155,BREAD FRESH,445,FAJAR ROAD,01-524,,670445,103.7705985,1.383741,445 FAJAR ROAD 01-524 
156,BREAD FRESH,598,Yishun Ring Road,01-61,Wisteria Mall,768698,103.8411300766,1.4177100111,598 Yishun Ring Road 01-61 Wisteria Mall
157,BREAD JUNCTION,639,PUNGGOL DRIVE,01-03,,820639,103.9159665,1.399599,639 PUNGGOL DRIVE 01-03 
158,BREAD JUNCTION,547,Segar Road,01-02,,670547,103.769577,1.388241,547 Segar Road 01-02 
159,Bread-Garden,417,YISHUN AVENUE 11,01-343,,760417,103.846329,1.424385,417 YISHUN AVENUE 11 01-343 
160,Bread-Garden,283,BUKIT BATOK EAST AVENUE 3,01-257,,650283,103.7575395,1.34694,283 BUKIT BATOK EAST AVENUE 3 01-257 
161,Bread-Garden,485,Segar Road,01-510,,670485,103.771314,1.388682,485 Segar Road 01-510 
162,Bread-Garden,768,WOODLANDS AVENUE 6,01-23,WOODLANDS MART,730768,103.7981295,1.4456609999999999,768 WOODLANDS AVENUE 6 01-23 WOODLANDS MART
163,Breadwerks,1,TAMPINES WALK,B1-K30,OUR TAMPINES HUB,528523,103.94013,1.3540100000000002,1 TAMPINES WALK B1-K30 OUR TAMPINES HUB
164,Breadwerks,348,BEDOK ROAD,01-03,BEDOK MARKET PLACE,469560,103.9482585,1.331433,348 BEDOK ROAD 01-03 BEDOK MARKET PLACE
165,Breadwerks,81,JOO CHIAT ROAD,01-02/03,,427725,103.8990375,1.314378,81 JOO CHIAT ROAD 01-02/03 
166,Breeze Cafe & Ice Cream Stop,1,PASIR RIS CLOSE,01-344,E!Hub @Downtown East,519599,103.9555299339,1.3771599484000001,1 PASIR RIS CLOSE 01-344 E!Hub @Downtown East
167,Brew and Bites,501,STIRLING ROAD,,MDIS Campus,148951,103.8015,1.2971249999999999,501 STIRLING ROAD  MDIS Campus
168,Brinda's,162,BUKIT MERAH CENTRAL,01-3533,,150162,103.817466,1.283841,162 BUKIT MERAH CENTRAL 01-3533 
169,BRIO,1,JURONG WEST CENTRAL 2,02-24,JURONG POINT,648886,103.7067075,1.339632,1 JURONG WEST CENTRAL 2 02-24 JURONG POINT
170,Buffet City International Buffet Restaurant,101,CANTONMENT ROAD,01-04,TANJONG PAGAR COMMUNITY CLUB,089774,103.841613,1.2762,101 CANTONMENT ROAD 01-04 TANJONG PAGAR COMMUNITY CLUB
171,BUKIT PANJANG CHICKEN RICE (S2) @ BT PANJANG HAWKER CENTRE & MARKET,2,Bukit Panjang Ring Road,01-02,,679947,103.7724885,1.377603,2 Bukit Panjang Ring Road 01-02 
172,Bumbu Restaurant,4,QUEEN'S ROAD,02-101,,260004,103.808061,1.318833,4 QUEEN'S ROAD 02-101 
173,Bumbu Restaurant,44,KANDAHAR STREET,,,198897,103.8598965,1.301832,44 KANDAHAR STREET  
174,Bumbu Restaurant,125,TELOK AYER STREET,,,068594,103.848039,1.281105,125 TELOK AYER STREET  
175,Bun Times,1,Joo Koon Circle,01-36,Fairprice Hub,629117,103.67899,1.32702,1 Joo Koon Circle 01-36 Fairprice Hub
176,Bun Times,302,TIONG BAHRU ROAD,B1-123,TIONG BAHRU PLAZA,168732,103.827809925,1.2865800255,302 TIONG BAHRU ROAD B1-123 TIONG BAHRU PLAZA
177,Buntong Chicken Rice (S10)@The Food Market Century Square,2,TAMPINES CENTRAL 5,03-19,CENTURY SQUARE,529509,103.9437855,1.352358,2 TAMPINES CENTRAL 5 03-19 CENTURY SQUARE
178,Burger & Satay (S3) @ Foodfare E Avenue,1,PASIR RIS CLOSE,01-339,PASIR RIS NTUC RESORT,519599,103.9548285,1.377495,1 PASIR RIS CLOSE 01-339 PASIR RIS NTUC RESORT
179,Burger King,8A,Marina Boulevard,B2-03,Marina Bay Link Mall,018984,103.854042,1.280133,8A Marina Boulevard B2-03 Marina Bay Link Mall
180,Burger King,60,Paya Lebar Road,01-37-43,Paya Lebar Square,409051,103.89258,1.3188149999999998,60 Paya Lebar Road 01-37-43 Paya Lebar Square
181,Burger King,3,TEMASEK BOULEVARD,03-371,SUNTEC CITY MALL,038983,103.859307,1.295001,3 TEMASEK BOULEVARD 03-371 SUNTEC CITY MALL
182,Burger King,2,CLEMENTI WEST STREET 2,01-01,WEST COAST COMMUNITY CENTRE,129605,103.7648475,1.3027229999999999,2 CLEMENTI WEST STREET 2 01-01 WEST COAST COMMUNITY CENTRE
183,Burger King,1,WOODLANDS STREET 31,01-01,FUCHUN COMMUNITY CLUB,738581,103.774995,1.429416,1 WOODLANDS STREET 31 01-01 FUCHUN COMMUNITY CLUB
184,Burger King,530,LORONG 6 TOA PAYOH,01-05,HDB HUB,310530,103.8474045,1.332135,530 LORONG 6 TOA PAYOH 01-05 HDB HUB
185,Burger King,8,GRANGE ROAD,01-07,CATHAY CINELEISURE  ORCHARD,239695,103.8364425,1.301499,8 GRANGE ROAD 01-07 CATHAY CINELEISURE  ORCHARD
186,Burger King,10,"Airport Boulevard, Changi Airport Terminal 4",02-228,LOUNGE MEZZANINE(#02-K36),819665,103.982724,1.339038,"10 Airport Boulevard, Changi Airport Terminal 4 02-228 LOUNGE MEZZANINE(#02-K36)"
187,Burger King,604,SEMBAWANG ROAD,01-01,SEMBAWANG SHOPPING CENTRE,758459,103.824837,1.441683,604 SEMBAWANG ROAD 01-01 SEMBAWANG SHOPPING CENTRE
188,Burger King,65,AIRPORT BOULEVARD,03-13,CHANGI AIRPORT TERMINAL 3,819663,103.9851675,1.354374,65 AIRPORT BOULEVARD 03-13 CHANGI AIRPORT TERMINAL 3
189,Burger King,6,EU TONG SEN STREET,01-23/26,The Central,059817,103.8470175,1.289169,6 EU TONG SEN STREET 01-23/26 The Central
190,Burger King,23,BUKIT BATOK EAST AVENUE 4,01-01,BUKIT BATOK EAST COMMUNITY CLUB,659841,103.758264,1.348992,23 BUKIT BATOK EAST AVENUE 4 01-01 BUKIT BATOK EAST COMMUNITY CLUB
191,Burger King,68,ORCHARD ROAD,B1-11,PLAZA SINGAPURA,238839,103.8449835,1.3000319999999999,68 ORCHARD ROAD B1-11 PLAZA SINGAPURA
192,Burger King,4,TAMPINES CENTRAL 5,01-47,TAMPINES MALL,529510,103.944663,1.352592,4 TAMPINES CENTRAL 5 01-47 TAMPINES MALL
193,Burger King,175,BENCOOLEN STREET,01-01,BURLINGTON SQUARE,189649,103.8524985,1.30221,175 BENCOOLEN STREET 01-01 BURLINGTON SQUARE
194,Burger King,50,Jurong Gateway Road,B1-02,Jurong East Mall (JEM),608549,103.743261,1.332549,50 Jurong Gateway Road B1-02 Jurong East Mall (JEM)
195,Burger King,460,ALEXANDRA ROAD,0 1-17-20,PSA BUILDING,119963,103.8012255,1.273563,460 ALEXANDRA ROAD 0 1-17-20 PSA BUILDING
196,Burger King,2,TAMPINES STREET 41,01-02,TAMPINES NORTH COMMUNITY CLUB,529204,103.9466205,1.357281,2 TAMPINES STREET 41 01-02 TAMPINES NORTH COMMUNITY CLUB
197,Burger King,750,CHAI CHEE ROAD,01-02,VIVA BUSINESS PARK,469000,103.922109,1.323666,750 CHAI CHEE ROAD 01-02 VIVA BUSINESS PARK
198,Burger King,63,JURONG WEST CENTRAL 3,B 1-54/55,Jurong point shopping Centre,648331,103.70706,1.34008,63 JURONG WEST CENTRAL 3 B 1-54/55 Jurong point shopping Centre
199,Burger King,80,AIRPORT BOULEVARD,03-02,"CHANGI AIRPORT TERMINAL 1,Departure/Transit Lounge West Mezzanine",819642,103.990842,1.362537,"80 AIRPORT BOULEVARD 03-02 CHANGI AIRPORT TERMINAL 1,Departure/Transit Lounge West Mezzanine"
200,Burger King,1,HARBOURFRONT WALK,0  2-80/81,VIVO CITY,098585,103.822398,1.264383,1 HARBOURFRONT WALK 0  2-80/81 VIVO CITY
201,Burger King,1,JELEBU ROAD,01-28,BUKIT PANJANG PLAZA,677743,103.7641455,1.380321,1 JELEBU ROAD 01-28 BUKIT PANJANG PLAZA
202,Burger King,30,WOODLANDS AVENUE 2,0  1-19-25,WOODLANDS MRT STATION,738343,103.7873,1.43717,30 WOODLANDS AVENUE 2 0  1-19-25 WOODLANDS MRT STATION
203,Burger King,1,SENGKANG SQUARE,B  1 -14/14A,COMPASS ONE,545078,103.8946200667,1.391930055,1 SENGKANG SQUARE B  1 -14/14A COMPASS ONE
204,Burger King,1,EXPO DRIVE,01-13,SINGAPORE EXPO,486150,103.96126,1.33586,1 EXPO DRIVE 01-13 SINGAPORE EXPO
205,Burger King,2,Changi Business Park Avenue 1,01-05,UE Bizhub East,486015,103.963176,1.335402,2 Changi Business Park Avenue 1 01-05 UE Bizhub East
206,Burger King,5,STADIUM WALK,01-57/58,LEISURE PARK,397693,103.8764745,1.3023,5 STADIUM WALK 01-57/58 LEISURE PARK
207,Burger King,2,JURONG EAST STREET 21,01-51,IMM BUILDING,609601,103.7464605,1.334988,2 JURONG EAST STREET 21 01-51 IMM BUILDING
208,Burger King,238,THOMSON ROAD,0 1-09/10,NOVENA SQUARE,307683,103.8434,1.31968,238 THOMSON ROAD 0 1-09/10 NOVENA SQUARE
209,Burger King,11,Bedok North Street 1,01-33,,469662,103.93165,1.33278,11 Bedok North Street 1 01-33 
212,Burger King,23,Serangoon Central,B1-30/31,NEX,556083,103.872294,1.350765,23 Serangoon Central B1-30/31 NEX
213,Burger King,120,PASIR RIS CENTRAL,01-11,PASIR RIS SPORTS & RECREATION CENTRE,519640,103.952304,1.3741919999999999,120 PASIR RIS CENTRAL 01-11 PASIR RIS SPORTS & RECREATION CENTRE
214,Burger King,1,Joo Koon Circle,01-51,Fairprice Hub,629117,103.67899,1.32702,1 Joo Koon Circle 01-51 Fairprice Hub
215,Burger King,1,Lower Kent Ridge Road,01-11,One @ Kentridge,119082,103.78396,1.29355,1 Lower Kent Ridge Road 01-11 One @ Kentridge
216,Burger King,53,ANG MO KIO AVENUE 3,01-40,AMK HUB,569933,103.8484125,1.3691879999999998,53 ANG MO KIO AVENUE 3 01-40 AMK HUB
217,Burger King,16,COLLYER QUAY,01-01/02,HITACHI TOWER,049318,103.852548,1.284192,16 COLLYER QUAY 01-01/02 HITACHI TOWER
218,Burger King,258,PASIR RIS STREET 21,01-23,LOYANG POINT,510258,103.964634,1.367064,258 PASIR RIS STREET 21 01-23 LOYANG POINT
219,Burger King,241,VICTORIA STREET,0 1-241/243,Bugis Village,188030,103.855284,1.300437,241 VICTORIA STREET 0 1-241/243 Bugis Village
220,Burger King,809,French Road,01-31,Kitchener Complex,200809,103.8621555,1.308375,809 French Road 01-31 Kitchener Complex
221,BURGERUP,83,Punggol Central,B2-06,Waterway Point (West Wing),828761,103.9018000589,1.4057800345,83 Punggol Central B2-06 Waterway Point (West Wing)
222,BURGERUP EXPRESS,1,NORTHPOINT DRIVE,B2-113,NORTHPOINT CITY,768019,103.8361725,1.427868,1 NORTHPOINT DRIVE B2-113 NORTHPOINT CITY
223,Butter Studio,4,TAMPINES CENTRAL 5,B1-K8,TAMPINES MALL,529510,103.944663,1.352592,4 TAMPINES CENTRAL 5 B1-K8 TAMPINES MALL
224,Butter Studio,147,JALAN BESAR,,,208865,103.8562425,1.307178,147 JALAN BESAR  
225,Butter Studio,391A,ORCHARD ROAD,,NGEE ANN CITY TOWER A,238873,103.83425,1.30245,391A ORCHARD ROAD  NGEE ANN CITY TOWER A
226,BUTTERNUT,3,Yung Sheng Road,02-108,Taman Jurong Market and Food Centre,618499,103.7213200766,1.3347299561,3 Yung Sheng Road 02-108 Taman Jurong Market and Food Centre
227,C.M.K. 2001 Restaurant,92,SYED ALWI ROAD,,,207668,103.855545,1.30941,92 SYED ALWI ROAD  
228,Cafe @ CWSS,698,WEST COAST ROAD,,COMMONWEALTH SECONDARY SCHOOL,608784,103.745421,1.319103,698 WEST COAST ROAD  COMMONWEALTH SECONDARY SCHOOL
229,CAFE @ MI,60,BUKIT BATOK WEST AVENUE 8,,MILLENNIA INSTITUTE,658965,103.74079,1.3510900000000001,60 BUKIT BATOK WEST AVENUE 8  MILLENNIA INSTITUTE
231,CAFÈ @ PSS,51,Edgefield Plains,01-01,Punggol Secondary School,828870,103.9090815,1.401723,51 Edgefield Plains 01-01 Punggol Secondary School
232,CAFÈ @ PSS,51,Edgefield Plains,01-01,Punggol Secondary School,828870,103.9090815,1.401723,51 Edgefield Plains 01-01 Punggol Secondary School
233,Cafe @ St Andrew's House,15,FRANCIS THOMAS DRIVE,,ST. ANDREW'S SECONDARY SCHOOL,359342,103.8658600439,1.3316400694000001,15 FRANCIS THOMAS DRIVE  ST. ANDREW'S SECONDARY SCHOOL
234,CAFE @ TJC,22,BEDOK SOUTH ROAD,,TEMASEK JUNIOR COLLEGE,469278,103.93514,1.31845,22 BEDOK SOUTH ROAD  TEMASEK JUNIOR COLLEGE
235,CAFE @ TMUC (Mngd By Thomson Catering),20,TEMBUSU CRESCENT,,,627610,103.6674495,1.276452,20 TEMBUSU CRESCENT  
236,CAFE @ YCH,,No 2 Yishun Central 2,,Yishun Community Hospital,768024,103.83694,1.42374, No 2 Yishun Central 2  Yishun Community Hospital
237,CAFE 85 @ HOLIDAY INN ATRIUM (MNGD BY THE WOK PEOPLE),317,OUTRAM ROAD,B2,HOLIDAY INN ATRIUM SINGAPORE,169075,103.834431,1.288962,317 OUTRAM ROAD B2 HOLIDAY INN ATRIUM SINGAPORE
238,Cafe Fantasy (S9) @ Horizon Pri Sch,61,EDGEDALE PLAINS,,,828819,103.9134465,1.399374,61 EDGEDALE PLAINS  
239,Cafe Galilee P/L,53,MARGARET DRIVE,,QUEENSTOWN BRANCH LIBRARY,149297,103.805424,1.298574,53 MARGARET DRIVE  QUEENSTOWN BRANCH LIBRARY
240,Cafe Galilee P/L,5,BISHAN PLACE,01-02,BISHAN PUBLIC LIBRARY,579841,103.84884,1.349847,5 BISHAN PLACE 01-02 BISHAN PUBLIC LIBRARY
241,Cafe Galilee P/L,21,JURONG EAST CENTRAL 1,,JURONG EAST LIBRARY,609732,103.739535,1.332693,21 JURONG EAST CENTRAL 1  JURONG EAST LIBRARY
242,Cafe Galilee P/L,278,MARINE PARADE ROAD,,MARINE PARADE COMMUNITY CENTRE,449282,103.9096395,1.3048739999999999,278 MARINE PARADE ROAD  MARINE PARADE COMMUNITY CENTRE
243,Cafe Galilee P/L,900,SOUTH WOODLANDS DRIVE,01-03,WOODLANDS CIVIC CENTRE,730900,103.786812,1.43514,900 SOUTH WOODLANDS DRIVE 01-03 WOODLANDS CIVIC CENTRE
244,Cafe O,2,JURONG EAST STREET 21,01-101,IMM BUILDING,609601,103.7464605,1.334988,2 JURONG EAST STREET 21 01-101 IMM BUILDING
245,Cafe O,118,Holland Avenue,01-01,Raffles Holland Village,278997,103.796109,1.310562,118 Holland Avenue 01-01 Raffles Holland Village
246,Cafe Seven,10,KALLANG ROAD,01-00,ICA BUILDING,208718,103.862772,1.306638,10 KALLANG ROAD 01-00 ICA BUILDING
247,Cafe Seven,20,JALAN AFIFI,01-00,CISCO CENTRE,409179,103.8920805,1.321812,20 JALAN AFIFI 01-00 CISCO CENTRE
248,Cafeteria @ GE Aviation Service Operation Pte Ltd Singapore (Mngd by Stamfles International Pte Ltd),23,LOYANG WAY,,GE Aviation,508726,103.9744399883,1.3761999745,23 LOYANG WAY  GE Aviation
249,Cafeteria @ HPB,3,SECOND HOSPITAL AVENUE,01-04,HPB,168937,103.838121,1.279575,3 SECOND HOSPITAL AVENUE 01-04 HPB
250,Cahaya Restaurant,14,SCOTTS ROAD,05-91/92,FAR EAST PLAZA,228213,103.8336075,1.307268,14 SCOTTS ROAD 05-91/92 FAR EAST PLAZA
251,Cajun On Wheels,68,ORCHARD ROAD,03-92,PLAZA SINGAPURA,238839,103.8449835,1.3000319999999999,68 ORCHARD ROAD 03-92 PLAZA SINGAPURA
252,Cajun On Wheels (Terminal 12) @ Pasarbella Suntec City,3,TEMASEK BOULEVARD,01-K41,SUNTEC CITY MALL,038983,103.859307,1.295001,3 TEMASEK BOULEVARD 01-K41 SUNTEC CITY MALL
253,Canadian 2 For 1 Pizza,10,KIM KEAT ROAD,,,328844,103.8528,1.323909,10 KIM KEAT ROAD  
254,Canadian 2 For 1 Pizza,10,Sixth Avenue,,,276474,103.79493,1.331172,10 Sixth Avenue  
255,Canadian 2 For 1 Pizza,67,BRIGHTON CRESCENT,,SERANGOON GARDEN ESTATE,559212,103.871169,1.362762,67 BRIGHTON CRESCENT  SERANGOON GARDEN ESTATE
256,Canadian 2 For 1 Pizza,534,CHOA CHU KANG STREET 51,01-49A,,680534,103.743189,1.392246,534 CHOA CHU KANG STREET 51 01-49A 
257,Canadian 2 For 1 Pizza,,18 Yishun Ave 9,02-59,Junction Nine,768897,103.84156,1.4334, 18 Yishun Ave 9 02-59 Junction Nine
258,Canadian 2 For 1 Pizza,93,Pasir Ris Drive 3,01-04,Pasir Ris Elias Community Centre,519498,103.942863,1.378314,93 Pasir Ris Drive 3 01-04 Pasir Ris Elias Community Centre
259,Canadian 2 For 1 Pizza,164,Bukit Batok Street 11,01-134,,650164,103.7428335,1.3477139999999999,164 Bukit Batok Street 11 01-134 
260,Canadian 2 For 1 Pizza,83,KAMPONG BAHRU ROAD,,,169379,103.8355965,1.2762,83 KAMPONG BAHRU ROAD  
261,Canadian 2 For 1 Pizza,501,WEST COAST DRIVE,01-270,,120501,103.7590875,1.311804,501 WEST COAST DRIVE 01-270 
262,Canadian 2 For 1 Pizza,744,BEDOK RESERVOIR ROAD,0 1-3043,,470744,103.9216635,1.337859,744 BEDOK RESERVOIR ROAD 0 1-3043 
263,Canadian 2 For 1 Pizza,,2 Ang Mo Kio Drive,01-14/29,ITE Central College,567720,103.8570435,1.379052, 2 Ang Mo Kio Drive 01-14/29 ITE Central College
264,Canadian 2 For 1 Pizza,23,SIN MING ROAD,01-15,,570023,103.8358215,1.3543560000000001,23 SIN MING ROAD 01-15 
265,Canadian 2 For 1 Pizza,369,SEMBAWANG ROAD,01-02,,758382,103.8261645,1.426941,369 SEMBAWANG ROAD 01-02 
266,Canadian 2 For 1 Pizza,806,WOODLANDS STREET 81,01-03,,730806,103.786758,1.44099,806 WOODLANDS STREET 81 01-03 
267,Canadian 2 For 1 Pizza,430,JOO CHIAT ROAD,,,427646,103.904046,1.306764,430 JOO CHIAT ROAD  
268,Canadian 2 For 1 Pizza,557,Jurong West Street 42,01-397,,640557,103.718691,1.353969,557 Jurong West Street 42 01-397 
269,Carnival Bakery,,18 UPPER BOON KENG ROAD,01-1159,,380018,103.872303,1.314801, 18 UPPER BOON KENG ROAD 01-1159 
270,Carrot Cake (S15) @ Cantine Jurong Point,1,JURONG WEST CENTRAL 2,B   1 -42/43/44,JURONG POINT,648886,103.7067075,1.339632,1 JURONG WEST CENTRAL 2 B   1 -42/43/44 JURONG POINT
271,Casa Del Wild @ UNIVERSAL STUDIOS SINGAPORE (RWS),30,SENTOSA GATEWAY,01-323,,098269,103.8230145,1.2539609999999999,30 SENTOSA GATEWAY 01-323 
272,Casuarina Curry,20,SIXTH AVENUE,,,276479,103.794957,1.330677,20 SIXTH AVENUE  
273,Casuarina Curry,136 / 138,CASUARINA ROAD,,SEMBAWANG HILLS ESTATE,579526,103.8280725,1.377189,136 / 138 CASUARINA ROAD  SEMBAWANG HILLS ESTATE
274,Casuarina Curry,187,MACPHERSON ROAD,,SENNETT ESTATE,348545,103.8754845,1.330425,187 MACPHERSON ROAD  SENNETT ESTATE
275,Chai Chee Seafood Restaurant,359,CHANGI ROAD,,,419821,103.909851,1.318788,359 CHANGI ROAD  
276,Champion Bread,376,BUKIT BATOK STREET 31,01-126,,650376,103.749579,1.3583159999999999,376 BUKIT BATOK STREET 31 01-126 
277,Champion Killiney,60,JOO CHIAT ROAD,01-08,,427726,103.898385,1.314729,60 JOO CHIAT ROAD 01-08 
278,Changi Cafeteria @ UTC Aeropspace (Mngd by Four Seasons Management Pte Ltd),11,Changi Road North Rise,00-00,,498790,103.965858,1.353969,11 Changi Road North Rise 00-00 
279,Changi Seafood 0172,51,OLD AIRPORT ROAD,01-01,OLD AIRPORT ROAD HAWKERS' CENTRE,390051,103.8858075,1.308249,51 OLD AIRPORT ROAD 01-01 OLD AIRPORT ROAD HAWKERS' CENTRE
280,CHAR-GRILL SPICE,29A,GHIM MOH LINK,01-06,,271029,103.7845845,1.308501,29A GHIM MOH LINK 01-06 
281,CHAR-GRILL SPICE,292,BUKIT BATOK EAST AVE 6,01-01,,653292,103.7553525,1.344465,292 BUKIT BATOK EAST AVE 6 01-01 
282,Chargrill Western,1,North Point Drive,01-128,North Point City,768019,103.8361725,1.427868,1 North Point Drive 01-128 North Point City
283,Chawang Bistro,80,Mandai Lake Road,,Singapore Zoological Gardens,729826,103.790772,1.403136,80 Mandai Lake Road  Singapore Zoological Gardens
284,Chef Chicken Rice(S3)@ ST 52 Coffee House,506,Bukit Batok St 52,01-91,ST 52 Coffee House,650506,103.754664,1.35225,506 Bukit Batok St 52 01-91 ST 52 Coffee House
285,CHEF IBU,70,JELLICOE ROAD,01-11,V HOTEL,208767,103.8625245,1.307808,70 JELLICOE ROAD 01-11 V HOTEL
286,Chic Culture (S1) @ Eden Garden Cafe,121,TELOK AYER STREET,,,068590,103.84812,1.28124,121 TELOK AYER STREET  
287,Chic-A-Boo Fried Chicken,750,Chai Chee Road,01-31,Technopark @Chai Chee,469000,103.922109,1.323666,750 Chai Chee Road 01-31 Technopark @Chai Chee
288,Chic-A-Boo Fried Chicken,6,Raffles Boulevard,03-147/148,Marina Square,039594,103.8575385,1.291275,6 Raffles Boulevard 03-147/148 Marina Square
289,Chic-A-Boo Fried Chicken,180,KITCHENER ROAD,01-30/31,City Square Mall,208539,103.856625,1.31139,180 KITCHENER ROAD 01-30/31 City Square Mall
290,Chic-A-Boo Fried Chicken,604,Sembawang Road,01-02,Sembawang Shopping Centre,758459,103.824837,1.441683,604 Sembawang Road 01-02 Sembawang Shopping Centre
291,Chickata Thai Hot Pot and Western Food,326,JURONG EAST STREET 31,01-118,,600326,103.729608,1.349019,326 JURONG EAST STREET 31 01-118 
292,CHICKEN MINCED MEAT NOODLE (R9) @ STAFF CANTEEN BY KOPITIAM CHANGI AIRPORT TERMINAL 2,60,AIRPORT BOULEVARD,3M,CHANGI AIRPORT TERMINAL 2,819643,103.9895145,1.3541940000000001,60 AIRPORT BOULEVARD 3M CHANGI AIRPORT TERMINAL 2
293,CHICKEN RICE & CARROT CAKE (S2) @ KAMPONG CHANTEK ANG MO KIO MRT,2450,ANG MO KIO AVENUE 8,01-10/17,ANG MO KIO MRT STATION,569811,103.8494565,1.369431,2450 ANG MO KIO AVENUE 8 01-10/17 ANG MO KIO MRT STATION
294,CHICKEN RICE & DRINKS (S1) @ KAKAK CAFE,530,LORONG 6 TOA PAYOH,01-03A,HDB HUB,310530,103.8474045,1.332135,530 LORONG 6 TOA PAYOH 01-03A HDB HUB
295,CHICKEN RICE & DRINKS (S2) @ KAKI CORNER,61,CHOA CHU KANG DRIVE,01-05,YEW TEE MRT STATION,689715,103.7474325,1.397457,61 CHOA CHU KANG DRIVE 01-05 YEW TEE MRT STATION
296,CHICKEN RICE & NASI PADANG (S9) @ Institute of Mental Health,10,Buangkok View,,Institute Mental Health,539747,103.88474,1.38165,10 Buangkok View  Institute Mental Health
298,CHICKEN RICE & SNACKS (S2) @ KAWAN STATION SEMBAWANG MRT,11,CANBERRA ROAD,01-04,SEMBAWANG MRT STATION,759775,103.819968,1.449126,11 CANBERRA ROAD 01-04 SEMBAWANG MRT STATION
299,Chicken Rice & Western Delights @ 1983 A Taste of Nanyang,2,BAYFRONT AVENUE,B1-01,The Shoppes at Marina Bay Sands,018972,103.8588525,1.283949,2 BAYFRONT AVENUE B1-01 The Shoppes at Marina Bay Sands
300,Chicken Rice (S1) @ Crest Sec Sch,561,JURONG EAST STREET 24,,CREST SECONDARY SCHOOL,609561,103.7426445,1.343295,561 JURONG EAST STREET 24  CREST SECONDARY SCHOOL
301,Chicken Rice (S10) @ Healthy Kopitiam YCH,2,Yishun Central 2,02-01,Yishun Community Hospital,768024,103.83694,1.42374,2 Yishun Central 2 02-01 Yishun Community Hospital
302,Chicken Rice (S10) @ Kopitiam Vivo City,1,HARBOURFRONT WALK,B2-39,VIVO CITY,098585,103.822398,1.264383,1 HARBOURFRONT WALK B2-39 VIVO CITY
303,Chicken Rice (S11) @ Cantine Paya Lebar Square,60,Paya Lebar Road,B1-51,Paya Lebar Square,409051,103.89258,1.3188149999999998,60 Paya Lebar Road B1-51 Paya Lebar Square
304,CHICKEN RICE (S12) @ FOOD CLUB,535,CLEMENTI ROAD,01-01,NGEE ANN POLYTECHNIC (BLOCK 22),599489,103.7771099753,1.3331799683,535 CLEMENTI ROAD 01-01 NGEE ANN POLYTECHNIC (BLOCK 22)
305,Chicken Rice (S12) @ Kopitiam Sun Plaza,30,SEMBAWANG DRIVE,03-01,SUN PLAZA,757713,103.8195,1.448199,30 SEMBAWANG DRIVE 03-01 SUN PLAZA
306,Chicken Rice (S13) @ Kopitiam Plaza Singapura,68,ORCHARD ROAD,0 6-15/17,PLAZA SINGAPURA,238839,103.8449835,1.3000319999999999,68 ORCHARD ROAD 0 6-15/17 PLAZA SINGAPURA
307,Chicken Rice (S14) @ Kopitiam Changi General Hospital,2,SIMEI STREET 3,01-20-00,CHANGI GENERAL HOSPITAL,529889,103.9493385,1.340091,2 SIMEI STREET 3 01-20-00 CHANGI GENERAL HOSPITAL
308,Chicken Rice (S17) @ Kopitiam Tampines Mall,4,TAMPINES CENTRAL 5,04-27/29,TAMPINES MALL,529510,103.944663,1.352592,4 TAMPINES CENTRAL 5 04-27/29 TAMPINES MALL
309,Chicken Rice (S19) @ Kopitiam Compass One,1,SENGKANG SQUARE,04-11,COMPASS ONE,545078,103.8946200667,1.391930055,1 SENGKANG SQUARE 04-11 COMPASS ONE
310,Chicken Rice (S19) @ Kopitiam Yew Tee Square,624,CHOA CHU KANG STREET 62,0  2 -222-244,YEW TEE SHOPPING CENTRE,680624,103.7470275,1.397916,624 CHOA CHU KANG STREET 62 0  2 -222-244 YEW TEE SHOPPING CENTRE
311,Chicken Rice (S19)@Kopitiam Compass One,1,SENGKANG SQUARE,04-11,COMPASS POINT,545078,103.894929,1.391805,1 SENGKANG SQUARE 04-11 COMPASS POINT
312,Chicken Rice (S2) @ Cantine Jurong Point,1,JURONG WEST CENTRAL 2,B   1 -42/43/44,JURONG POINT,648886,103.7067075,1.339632,1 JURONG WEST CENTRAL 2 B   1 -42/43/44 JURONG POINT
313,CHICKEN RICE (S2) @ FLAVOURS BY HESED&EMET,21,Tampines Ave 1,01-00,Temasek Polytechnic (Blk 23A),529757,103.93268,1.34654,21 Tampines Ave 1 01-00 Temasek Polytechnic (Blk 23A)
314,CHICKEN RICE (S2) @ GIANT FOODCOURT,21,TAMPINES NORTH DRIVE 2,03,GIANT,528765,103.9322565,1.372149,21 TAMPINES NORTH DRIVE 2 03 GIANT
315,Chicken Rice (S2) @ Healthy Kopitiam NTFGH,1,Jurong East Street 21,02-01,Ng Teng Fong General Hospital,609606,103.74441,1.33487,1 Jurong East Street 21 02-01 Ng Teng Fong General Hospital
316,Chicken Rice (S21) @ Kopitiam Changi Airport T3,65,AIRPORT BOULEVARD,B2-03,CHANGI AIRPORT TERMINAL 3,819663,103.9851675,1.354374,65 AIRPORT BOULEVARD B2-03 CHANGI AIRPORT TERMINAL 3
317,Chicken Rice (S3) @ Rasa Rasa Teck Whye,160A,JALAN TECK WHYE,01-01,MULTI STOREY CAR PARK,681160,103.7572965,1.380411,160A JALAN TECK WHYE 01-01 MULTI STOREY CAR PARK
318,CHICKEN RICE (S3) @ TUAN TUAN . PUAN PUAN,30,WOODLANDS AVENUE 2,0  1-17/18,WOODLANDS MRT STATION,738343,103.7873,1.43717,30 WOODLANDS AVENUE 2 0  1-17/18 WOODLANDS MRT STATION
319,CHICKEN RICE (S3) BAGUS HARBOUR FRONT,1,MARITIME SQUARE,01-103 -  108,HARBOURFRONT CENTRE,099253,103.819437,1.26306,1 MARITIME SQUARE 01-103 -  108 HARBOURFRONT CENTRE
320,Chicken Rice (S4) @ Bagus Causeway Point,1,WOODLANDS SQUARE,07-03,CAUSEWAY POINT,738099,103.785984,1.435878,1 WOODLANDS SQUARE 07-03 CAUSEWAY POINT
321,Chicken Rice (S4) @ Kopitiam TTSH,11,JALAN TAN TOCK SENG,0  1 -13/14/15,TAN TOCK SENG HOSPITAL,308433,103.84624,1.32175,11 JALAN TAN TOCK SENG 0  1 -13/14/15 TAN TOCK SENG HOSPITAL
322,Chicken Rice (S4) @ Koufu Sengkang General and Community Hospital,1,Anchorvale Street,01-21,Sengkang General and Community Hospital,544835,103.891365,1.395702,1 Anchorvale Street 01-21 Sengkang General and Community Hospital
323,Chicken Rice (S4)@MyKampung Heartbeat@Bedok,11,Bedok North Street 1,01-28/29,Heartbeat @ Bedok,469662,103.9326099478,1.3273499222,11 Bedok North Street 1 01-28/29 Heartbeat @ Bedok
324,Chicken Rice (S4)@North Canteen Nanyang Polytechnic,180,ANG MO KIO AVENUE 8,02-00,BLK E NANYANG POLYTECHNIC,569830,103.8482500384,1.3799000077999999,180 ANG MO KIO AVENUE 8 02-00 BLK E NANYANG POLYTECHNIC
325,CHICKEN RICE (S5)  KOPITIAM NORTHPOINT,930,YISHUN AVE 2,B2-12,,769098,103.835979,1.429344,930 YISHUN AVE 2 B2-12 
326,Chicken Rice (S5) @ 89.7 Supper Club (Geylang East),1016,GEYLANG EAST AVENUE 3,01-165,,389731,103.891428,1.318824,1016 GEYLANG EAST AVENUE 3 01-165 
327,Chicken Rice (S5)@Kopitiam NUH Main Building,5,LOWER KENT RIDGE ROAD,01-01,NATIONAL UNIVERSITY HOSPITAL,119074,103.7827800594,1.2952199439,5 LOWER KENT RIDGE ROAD 01-01 NATIONAL UNIVERSITY HOSPITAL
328,Chicken Rice (S52) @ Hawker Centre OTH,51,Tampines Avenue 4,01-52,Our Tampines Hub,529684,103.9404105,1.353141,51 Tampines Avenue 4 01-52 Our Tampines Hub
329,Chicken Rice (S6) @ Foodfare E Avenue,1,PASIR RIS CLOSE,01-339,E! HUB @ DOWNTOWN EAST,519599,103.9555299339,1.3771599484000001,1 PASIR RIS CLOSE 01-339 E! HUB @ DOWNTOWN EAST
330,Chicken Rice (S6) @ Koufu,500,DOVER ROAD,,Foodcourt 4 @ Aero Hub Singapore,139651,103.7787165,1.309194,500 DOVER ROAD  Foodcourt 4 @ Aero Hub Singapore
331,Chicken Rice (S6)@Refresh ITE College West,1,Choa Chu Kang Grove,03-05,ITE College West,688236,103.7515005,1.374309,1 Choa Chu Kang Grove 03-05 ITE College West
332,CHICKEN RICE (S7) @ FORK & SPOON WOODLANDS MART,768,WOODLANDS AVENUE 6,01-32,WOODLANDS MART,730768,103.7981295,1.4456609999999999,768 WOODLANDS AVENUE 6 01-32 WOODLANDS MART
333,Chicken Rice (S7) @ Kopitiam Suntec City Mall,3,TEMASEK BOULEVARD,0  3  -367-370,SUNTEC CITY MALL,038983,103.859307,1.295001,3 TEMASEK BOULEVARD 0  3  -367-370 SUNTEC CITY MALL
334,Chicken Rice (S7)@Fork & Spoon Woodlands Mart,768,WOODLANDS AVENUE 6,0  1-30/32,WOODLANDS MART,730768,103.7981295,1.4456609999999999,768 WOODLANDS AVENUE 6 0  1-30/32 WOODLANDS MART
335,Chicken Rice (S9) @ Cookhouse White Sand,1,PASIR RIS CENTRAL STREET 3,03-01/02,,518457,103.9496355,1.372365,1 PASIR RIS CENTRAL STREET 3 03-01/02 
336,Chicken Rice (S9) @ Food Canopy Republic Polytechnic,27,WOODLANDS AVENUE 9,03-01,REPUBLIC POLYTECHNIC (BLK W4/W6 LAWN FOODCOURT),738964,103.7834055,1.444689,27 WOODLANDS AVENUE 9 03-01 REPUBLIC POLYTECHNIC (BLK W4/W6 LAWN FOODCOURT)
337,Chicken Rice (S9) @ Kopitiam SGH,6,HOSPITAL DRIVE,01-00,SINGAPORE GENERAL HOSPITAL,169608,103.8353085,1.279971,6 HOSPITAL DRIVE 01-00 SINGAPORE GENERAL HOSPITAL
338,Chicken Rice (S9) @ Matrix Cafeteria ITE College West,1,Chua Chu Kang Grove,02-01,Ite College West,688236,103.7515005,1.374309,1 Chua Chu Kang Grove 02-01 Ite College West
339,Chicken Rice (S9) @ Sedap Pasir Ris West Plaza,735,Pasir Ris Street 72,01-342,Pasir Ris West Plaza,510735,103.9365765,1.379664,735 Pasir Ris Street 72 01-342 Pasir Ris West Plaza
340,Chicken Rice (S9)@FoodJunction Harbour Front Ctr,1,MARITIME SQUARE,03-01/04,HARBOURFRONT CENTRE,099253,103.819437,1.26306,1 MARITIME SQUARE 03-01/04 HARBOURFRONT CENTRE
341,CHICKEN RICE / CARROT CAKE & SNACKS (S1) @ SAMBAL SAMBAL ADMIRALTY MRT,70,WOODLANDS AVENUE 7,01-02,ADMIRALTY MRT STATION  PART C,738344,103.800978,1.44054,70 WOODLANDS AVENUE 7 01-02 ADMIRALTY MRT STATION  PART C
342,CHICKEN RICE / WESTERN @ MAKANISTA,4,TAMPINES CENTRAL 5,01-42-44,TAMPINES MALL,529510,103.944663,1.352592,4 TAMPINES CENTRAL 5 01-42-44 TAMPINES MALL
344,Chicken Rice Stall 6 @ NIE Canteen,1,NANYANG WALK,,NATIONAL INSTITUTE OF EDUCATION,637616,103.6819,1.3489,1 NANYANG WALK  NATIONAL INSTITUTE OF EDUCATION
345,"Chicken Rice, Tim Sum, Noodle & Porridge @ Enak Enak Hong Kong Tea House (ECP)",1202,EAST COAST PARKWAY,01-01,EAST COAST SEAFOOD CENTRE,449881,103.929759,1.305099,1202 EAST COAST PARKWAY 01-01 EAST COAST SEAFOOD CENTRE
346,CHICKEN RICE/NASI LEMAK (S2) @ KHUN THAI CCK,10,CHOA CHU KANG AVENUE 4,0 1-18/19,CHOA CHU KANG MRT STATION,689810,103.744296,1.385109,10 CHOA CHU KANG AVENUE 4 0 1-18/19 CHOA CHU KANG MRT STATION
347,Chicken Supremo Western Food (S5) @ 7 Stars,498,JURONG WEST STREET 41,01-426,,640498,103.724172,1.348731,498 JURONG WEST STREET 41 01-426 
348,Chicky Fun (R1) @ Bagus Northpoint City,1,Northpoint Drive,02-103,,768019,103.8361725,1.427868,1 Northpoint Drive 02-103 
349,Chicky Fun (S12) @ Kopitiam Lau Pa Sat,18,RAFFLES QUAY,,LAU PA SAT FESTIVAL MARKET,048582,103.850415,1.280529,18 RAFFLES QUAY  LAU PA SAT FESTIVAL MARKET
350,Chicky Fun @ Kopitiam Square,10,Sengkang Square,01-09/10,Kopitiam Square,544829,103.8938535,1.391589,10 Sengkang Square 01-09/10 Kopitiam Square
351,Chilli Api Cafe,,45 Science Park Road,01-05/06,Sparkle,117407,103.7826900111,1.2879399306, 45 Science Park Road 01-05/06 Sparkle
352,Chilli Api Cafe,1,SUPREME COURT LANE,01-01,SUPREME COURT SINGAPORE,178879,103.85109,1.29025,1 SUPREME COURT LANE 01-01 SUPREME COURT SINGAPORE
353,Chilli Api Cafe (Mngd By Chilli Api Catering),12,MARINA BOULEVARD,13-40,MARINA BAY FINANCIAL TOWER 3,018982,103.854474,1.279152,12 MARINA BOULEVARD 13-40 MARINA BAY FINANCIAL TOWER 3
354,CHINATOWN STATION @ AQUAMARINE,6,RAFFLES BOULEVARD,04,MARINA SQUARE,039594,103.8575385,1.291275,6 RAFFLES BOULEVARD 04 MARINA SQUARE
355,CHINESE CUISINE (S2) @ SIAEC HANGAR 5 STAFF CANTEEN (MNGD BY BLISSFUL GROUP PTE LTD),41,AIRLINE ROAD,,SIAEC HANGAR 5 STAFF CANTEEN,819831,103.9998825,1.375272,41 AIRLINE ROAD  SIAEC HANGAR 5 STAFF CANTEEN
356,Chinese Food (S4) @ Quad Cafe,60,NANYANG DRIVE,B1,School of Biological Sciences,637551,103.6789000183,1.3446399583,60 NANYANG DRIVE B1 School of Biological Sciences
357,CHOPSTIX & RICE,400,ORCHARD ROAD,B1-02,ORCHARD TOWERS,238875,103.829382,1.30698,400 ORCHARD ROAD B1-02 ORCHARD TOWERS
358,CHOPSTIX & RICE,400,ORCHARD ROAD,0 4-37/38,ORCHARD TOWERS,238875,103.829382,1.30698,400 ORCHARD ROAD 0 4-37/38 ORCHARD TOWERS
359,CHUMPO 2,118,RIVERVALE DRIVE,01-39,RIVERVALE PLAZA,540118,103.9020885,1.385532,118 RIVERVALE DRIVE 01-39 RIVERVALE PLAZA
360,CHUMPO 2,258,PASIR RIS STREET 21,01-24,LOYANG POINT,510258,103.964634,1.367064,258 PASIR RIS STREET 21 01-24 LOYANG POINT
361,Citi Cafe @ CBP (Mngd by Compass Group),3,CHANGI BUSINESS PARK CRESCENT,,,486026,103.965831,1.334133,3 CHANGI BUSINESS PARK CRESCENT  
362,CITRUS BY THE POOL,3,WOODLANDS STREET 13,,WOODLANDS SWIMMING COMPLEX,738600,103.7792205,1.434762,3 WOODLANDS STREET 13  WOODLANDS SWIMMING COMPLEX
363,Claypot (S2) @ Quad Cafe,60,NANYANG DRIVE,B1,School of Biological Sciences,637551,103.6789000183,1.3446399583,60 NANYANG DRIVE B1 School of Biological Sciences
364,CLAYPOT DELIGHT (S8) @ FLAVOURS BY HESED&EMET,21,Tampines Ave 1,01-00,Temasek Polytechnic (Blk 23A),529757,103.93268,1.34654,21 Tampines Ave 1 01-00 Temasek Polytechnic (Blk 23A)
365,CLUB B2 (STAFF CANTEEN)@ SINGAPORE MARRIOTT TANG PLAZA HOTEL (MNGD BY THE WOK PEOPLE),320,ORCHARD ROAD,B2,"MARRIOTT HOTEL, SINGAPORE",238865,103.83245,1.30498,"320 ORCHARD ROAD B2 MARRIOTT HOTEL, SINGAPORE"
366,Coba Coba,156,YISHUN STREET 11,01-106,,760156,103.833567,1.431891,156 YISHUN STREET 11 01-106 
367,COFFEE BEE,15,SCIENCE CENTRE ROAD,01-01,"SINGAPORE SCIENCE CENTRE COURTYARD, THE ANNEXE",609081,103.735755,1.333062,"15 SCIENCE CENTRE ROAD 01-01 SINGAPORE SCIENCE CENTRE COURTYARD, THE ANNEXE"
368,COLD DESSERT @ AMC,2,STAMFORD ROAD,,FAIRMONT SINGAPORE & SWISSOTEL THE STAMFORD,178882,103.8532725,1.293291,2 STAMFORD ROAD  FAIRMONT SINGAPORE & SWISSOTEL THE STAMFORD
369,Cold Section @ Straits Kitchen,10,SCOTTS ROAD,,GRAND HYATT SINGAPORE,228211,103.83294,1.30652,10 SCOTTS ROAD  GRAND HYATT SINGAPORE
370,COLD STATION @ AQUAMARINE,6,RAFFLES BOULEVARD,04,MARINA SQUARE,039594,103.8575385,1.291275,6 RAFFLES BOULEVARD 04 MARINA SQUARE
371,Colonial Club,65,AIRPORT BOULEVARD,03-33,CHANGI AIRPORT TERMINAL 3,819663,103.9851675,1.354374,65 AIRPORT BOULEVARD 03-33 CHANGI AIRPORT TERMINAL 3
372,Cook Book,11,HOSPITAL DRIVE,01-01,NATIONAL CANCER CENTRE,169610,103.836537,1.279314,11 HOSPITAL DRIVE 01-01 NATIONAL CANCER CENTRE
373,Cookhouse Section 1 @ HTA (Mngd By Country Foods Pte Ltd),501,Old Choa Chu Kang Road,,"Block 10, HTA Cookhouse",698928,103.72212,1.372329,"501 Old Choa Chu Kang Road  Block 10, HTA Cookhouse"
374,COOLMAN DRINK FRESH COOLMAN FROZEN YOGURT,1,PASIR RIS CLOSE,02-K12,PASIR RIS NTUC RESORT,519599,103.9548285,1.377495,1 PASIR RIS CLOSE 02-K12 PASIR RIS NTUC RESORT
375,COOLMAN DRINK FRESH COOLMAN FROZEN YOGURT,21,CHOA CHU KANG AVENUE 4,B1-K21,,689812,103.7449755,1.38501,21 CHOA CHU KANG AVENUE 4 B1-K21 
376,CO-OP @ NTU CAFE,,52 Nanyang Avenue,B5-ME3/4,"Nanyang Technological University,The Hive",639816,103.6826595,1.343196," 52 Nanyang Avenue B5-ME3/4 Nanyang Technological University,The Hive"
377,COUNTER 1 & 2 @ SCDF (NSTI) Mngd By Sodexo,91,JALAN BAHAR,01-01,SCDF JALAN BAHAR CAMP,649735,103.690143,1.365453,91 JALAN BAHAR 01-01 SCDF JALAN BAHAR CAMP
378,Counter 1 & 2 @ SCDF-CDA Canteen (Mngd By Sodexo),101,Jalan Bahar,01-01,SCDF - Civil Defence Academy,649734,103.692015,1.366857,101 Jalan Bahar 01-01 SCDF - Civil Defence Academy
379,COURTALLAM BORDER RAHMATH KADAI,53,ROWELL ROAD,,,208000,103.8552165,1.308564,53 ROWELL ROAD  
380,CRAVE,9,BISHAN PLACE,B1-K8,JUNCTION 8 SHOPPING CENTRE,579837,103.8485655,1.350711,9 BISHAN PLACE B1-K8 JUNCTION 8 SHOPPING CENTRE
381,CRAVE,68,ORCHARD ROAD,B2-43,PLAZA SINGAPURA,238839,103.8449835,1.3000319999999999,68 ORCHARD ROAD B2-43 PLAZA SINGAPURA
382,CRAVE,3155,COMMONWEALTH AVENUE WEST,B1-K4/K5,CLEMENTI MALL,129588,103.7644245,1.3149,3155 COMMONWEALTH AVENUE WEST B1-K4/K5 CLEMENTI MALL
383,CRAVE,83,PUNGGOL CENTRAL,B1-K7,WATERWAY POINT (EAST WING),828761,103.9018000589,1.4057800345,83 PUNGGOL CENTRAL B1-K7 WATERWAY POINT (EAST WING)
384,CRAVE,90,HOUGANG AVENUE 10,B1-11,HOUGANG MALL,538766,103.893696,1.372203,90 HOUGANG AVENUE 10 B1-11 HOUGANG MALL
385,CRAVE,11,NEW UPPER CHANGI ROAD,B2-22,BEDOK MALL,467360,103.9292685,1.324773,11 NEW UPPER CHANGI ROAD B2-22 BEDOK MALL
386,CRAVE,1,SENGKANG SQUARE,B  1-02/03,COMPASS ONE,545078,103.8946200667,1.391930055,1 SENGKANG SQUARE B  1-02/03 COMPASS ONE
387,CRAVE,1,HARBOURFRONT WALK,B 2-K23,VIVO CITY,098585,103.822398,1.264383,1 HARBOURFRONT WALK B 2-K23 VIVO CITY
388,CRAVE,2,ORCHARD TURN,B 4-58/59,ION ORCHARD,238801,103.831722,1.30437,2 ORCHARD TURN B 4-58/59 ION ORCHARD
389,CRAVE,7,WALLICH STREET,B2-26/27,TANJONG PAGAR CENTRE,078884,103.8451545,1.276722,7 WALLICH STREET B2-26/27 TANJONG PAGAR CENTRE
390,CRAVE,180,KITCHENER ROAD,B 2-K2-K4,CITY SQUARE MALL,208539,103.856625,1.31139,180 KITCHENER ROAD B 2-K2-K4 CITY SQUARE MALL
391,CRAVE,1,PASIR RIS CENTRAL STREET 3,B1-K16,WHITESANDS,518457,103.9496355,1.372365,1 PASIR RIS CENTRAL STREET 3 B1-K16 WHITESANDS
392,CRAVE,1,JURONG WEST CENTRAL 2,B1-03,JURONG POINT,648886,103.7067075,1.339632,1 JURONG WEST CENTRAL 2 B1-03 JURONG POINT
393,CRAVE,930,YISHUN AVENUE 2,B1-45,NORTHPOINT,769098,103.835979,1.429344,930 YISHUN AVENUE 2 B1-45 NORTHPOINT
394,CRAVE,1,LOWER KENT RIDGE ROAD,01-19/20,,119082,103.7846835,1.2935159999999999,1 LOWER KENT RIDGE ROAD 01-19/20 
395,CRAVE,60,"AIRPORT BOULEVARD, CHANGI AIRPORT T2 -",02,DEPARTURE/TRANSIT LOUNGE NORTH (KIOSK D),819643,103.9895145,1.3541940000000001,"60 AIRPORT BOULEVARD, CHANGI AIRPORT T2 - 02 DEPARTURE/TRANSIT LOUNGE NORTH (KIOSK D)"
396,CRAVE,30,SEMBAWANG DRIVE,01-26,SUN PLAZA,757713,103.8195,1.448199,30 SEMBAWANG DRIVE 01-26 SUN PLAZA
397,CRAVE,60,AIRPORT BOULEVARD,0  1 6-008-10,CHANGI AIRPORT TERMINAL 2,819643,103.9895145,1.3541940000000001,60 AIRPORT BOULEVARD 0  1 6-008-10 CHANGI AIRPORT TERMINAL 2
398,Cumi Bali,66,TANJONG PAGAR ROAD,,,088487,103.8437505,1.2788279999999999,66 TANJONG PAGAR ROAD  
399,Curry Times,1,NORTHPOINT DRIVE,B1-201/202,NORTHPOINT CITY,768019,103.8361725,1.427868,1 NORTHPOINT DRIVE B1-201/202 NORTHPOINT CITY
400,Curry Times,238,THOMSON ROAD,0 2-33/34,"VELOCITY, NOVENA SQUARE",307683,103.843863,1.320021,"238 THOMSON ROAD 0 2-33/34 VELOCITY, NOVENA SQUARE"
401,Curry Times,65,AIRPORT BOULEVARD,B2-51,CHANGI AIRPORT TERMINAL 3 - Basement Level 2 North,819663,103.9851675,1.354374,65 AIRPORT BOULEVARD B2-51 CHANGI AIRPORT TERMINAL 3 - Basement Level 2 North
402,Curry Times,3,Gateway Drive,02-08,Westgate,608532,103.742658,1.334133,3 Gateway Drive 02-08 Westgate
403,Curry Times,10,Airport Boulevard,02-81/82,Changi Airport Terminal 4,819665,103.982724,1.339038,10 Airport Boulevard 02-81/82 Changi Airport Terminal 4
404,Curry Times Tingkat,460,ALEXANDRA ROAD,02-36,ALEXANDRA RETAIL CENTRE,119963,103.8018,1.27351,460 ALEXANDRA ROAD 02-36 ALEXANDRA RETAIL CENTRE
405,"Cut Fruit, Fruit Juice, Hot & Cold Beverage, Value Set, Churros Set, Hot Dessert, Cold Dessert (S1) @ Bagus Northpoint City",1,Northpoint Drive,02-103,,768019,103.8361725,1.427868,1 Northpoint Drive 02-103 
406,D' CUISINES RESTAURANT,726,UPPER CHANGI ROAD EAST,,,486046,103.964922,1.343961,726 UPPER CHANGI ROAD EAST  
407,D.U.I.T Cafe Restaurant,301,CANBERRA ROAD,01-01,FERNLEAF CENTRE,759774,103.82166,1.458243,301 CANBERRA ROAD 01-01 FERNLEAF CENTRE
408,DAILY COFFEE,750,CHAI CHEE ROAD,01-18,VIVO BUSINESS PARK @ CHAI CHEE,469000,103.922109,1.323666,750 CHAI CHEE ROAD 01-18 VIVO BUSINESS PARK @ CHAI CHEE
409,Dajie Niang Dou Fu,354,CLEMENTI AVENUE 2,01-253,,120354,103.7708595,1.313532,354 CLEMENTI AVENUE 2 01-253 
410,Dajie Niang Dou Fu & Hainan Chicken Rice,372,BUKIT BATOK STREET 31,01-374,,650372,103.7510235,1.358811,372 BUKIT BATOK STREET 31 01-374 
411,Dapur F Faiz,531,UPPER CROSS STREET,02-52,HONG LIM COMPLEX,050531,103.845303,1.284507,531 UPPER CROSS STREET 02-52 HONG LIM COMPLEX
412,Dapur Penyet,810,GEYLANG ROAD,0 1-43/44,/60/61 CITY PLAZA,409286,103.8936285,1.314612,810 GEYLANG ROAD 0 1-43/44 /60/61 CITY PLAZA
413,Dapur Penyet,176,ORCHARD ROAD,01-59,CENTREPOINT,238843,103.839912,1.301652,176 ORCHARD ROAD 01-59 CENTREPOINT
414,Dapur Penyet (S12) @ FoodRepublic City Square Mall,180,KITCHENER ROAD,04-31,city square mall,208539,103.856625,1.31139,180 KITCHENER ROAD 04-31 city square mall
415,DATANG SELALU,20A,YISHUN CENTRAL,01-01/02,YISHUN TEMPORARY BUS INTERCHANGE,768830,103.8381075,1.4299469999999999,20A YISHUN CENTRAL 01-01/02 YISHUN TEMPORARY BUS INTERCHANGE
416,Delta Cafe (Mngd By Happy Kitchen Mighty Chef),60,AIRPORT BOULEVARD,,CHANGI AIRPORT TERMINAL 2,819643,103.9895145,1.3541940000000001,60 AIRPORT BOULEVARD  CHANGI AIRPORT TERMINAL 2
417,Dessert & Drinks @ Enak Enak Hong Kong Tea House (ECP),1202,EAST COAST PARKWAY,01-01,EAST COAST SEAFOOD CENTRE,449881,103.929759,1.305099,1202 EAST COAST PARKWAY 01-01 EAST COAST SEAFOOD CENTRE
418,DESSERT FIRST PTE. LTD.,8,LIANG SEAH STREET,01-04,,189029,103.8566835,1.297926,8 LIANG SEAH STREET 01-04 
419,Dessert Section @ Straits Kitchen,10,SCOTTS ROAD,,GRAND HYATT SINGAPORE,228211,103.83294,1.30652,10 SCOTTS ROAD  GRAND HYATT SINGAPORE
420,Desserts (B2) @ Takashimaya (Mngd by The Wok People),391,ORCHARD ROAD,B2,NGEE ANN CITY,238872,103.834674,1.302426,391 ORCHARD ROAD B2 NGEE ANN CITY
421,DESSERTS @ AQUAMARINE,6,RAFFLES BOULEVARD,04,MARINA SQUARE,039594,103.8575385,1.291275,6 RAFFLES BOULEVARD 04 MARINA SQUARE
422,DF Kitchen (S3) @ CANTEEN SINGAPORE DISCOVERY CENTRE,510,UPPER JURONG ROAD,01-03,SINGAPORE DISCOVERY CENTRE,638365,103.67835,1.33112,510 UPPER JURONG ROAD 01-03 SINGAPORE DISCOVERY CENTRE
424,Dim Sum & Chicken Rice (S2) @ Tang Tea House Jurong West,414,JURONG WEST STREET 42,01-783,,640414,103.726035,1.352817,414 JURONG WEST STREET 42 01-783 
425,DIM SUM (S5) @ 89.7 SUPPER CLUB,5,CHANGI VILLAGE ROAD,,,500005,103.986828,1.388844,5 CHANGI VILLAGE ROAD  
426,DIM SUM/ECONOMIC RICE/PORRIDGE (S6) @ DIGNITY KITCHEN,267,SERANGOON AVENUE 3,02-02,,550267,103.870953,1.353168,267 SERANGOON AVENUE 3 02-02 
427,Dip 'n' Go,30,WOODLANDS AVENUE 2,01-31,WOODLANDS MRT STATION,738343,103.7873,1.43717,30 WOODLANDS AVENUE 2 01-31 WOODLANDS MRT STATION
428,D'LAKSA,1,SENGKANG SQUARE,B1-46,COMPASS POINT,545078,103.894929,1.391805,1 SENGKANG SQUARE B1-46 COMPASS POINT
429,D'LAKSA,90,HOUGANG AVENUE 10,B1-K7,HOUGANG MALL,538766,103.893696,1.372203,90 HOUGANG AVENUE 10 B1-K7 HOUGANG MALL
430,D'LAKSA,2,TAMPINES CENTRAL 5,01-36,CENTURY SQUARE,529509,103.9437855,1.352358,2 TAMPINES CENTRAL 5 01-36 CENTURY SQUARE
431,D'lite Cafe,321,JOO CHIAT PLACE,,PARKWAY EAST HOSPITAL,427990,103.909068,1.315116,321 JOO CHIAT PLACE  PARKWAY EAST HOSPITAL
432,DoDo Express,1,North Point Drive,B2-138,North Point City,768019,103.8361725,1.427868,1 North Point Drive B2-138 North Point City
433,Domino's Pizza Singapore Pte Ltd,301,TANJONG KATONG ROAD,,,437084,103.8960585,1.306395,301 TANJONG KATONG ROAD  
434,Domino's Pizza Singapore Pte Ltd,369,SEMBAWANG ROAD,,,758382,103.8261645,1.426941,369 SEMBAWANG ROAD  
435,Domino's Pizza Singapore Pte Ltd,253,CHOA CHU KANG AVENUE 1,01-01,KEAT HONG SHOPPING CENTRE,680253,103.744368,1.377414,253 CHOA CHU KANG AVENUE 1 01-01 KEAT HONG SHOPPING CENTRE
436,Domino's Pizza Singapore Pte Ltd,169,UPPER PAYA LEBAR ROAD,,,534860,103.8853935,1.339722,169 UPPER PAYA LEBAR ROAD  
437,Domino's Pizza Singapore Pte Ltd,233,JALAN KAYU,,,799457,103.872807,1.396098,233 JALAN KAYU  
438,Domino's Pizza Singapore Pte Ltd,802,TAMPINES AVE 4,01-23,,520802,103.9380795,1.3462290000000001,802 TAMPINES AVE 4 01-23 
439,Domino's Pizza Singapore Pte Ltd,47,LORONG 6 TOA PAYOH,01-148,,310047,103.8540285,1.336914,47 LORONG 6 TOA PAYOH 01-148 
440,Domino's Pizza Singapore Pte Ltd,42,HOLLAND DRIVE,01-81,,270042,103.7929635,1.307907,42 HOLLAND DRIVE 01-81 
441,Domino's Pizza Singapore Pte Ltd,60,PUNGGOL EAST,01-10,,828825,103.918392,1.39608,60 PUNGGOL EAST 01-10 
442,Domino's Pizza Singapore Pte Ltd,943,UPPER SERANGOON ROAD,,,534710,103.886145,1.36143,943 UPPER SERANGOON ROAD  
443,Domino's Pizza Singapore Pte Ltd,339,ANG MO KIO AVENUE 1,01-1587,,560339,103.8491145,1.3650660000000001,339 ANG MO KIO AVENUE 1 01-1587 
444,Domino's Pizza Singapore Pte Ltd,218,BEDOK NORTH STREET 1,01-15,,460218,103.93425,1.327491,218 BEDOK NORTH STREET 1 01-15 
445,Domino's Pizza Singapore Pte Ltd,625,ELIAS ROAD,01-312,ELIAS MALL,510625,103.9419765,1.3786019999999999,625 ELIAS ROAD 01-312 ELIAS MALL
446,Domino's Pizza Singapore Pte Ltd,202,Jurong East Street 21,01-115,,600202,103.7429685,1.336761,202 Jurong East Street 21 01-115 
447,Domino's Pizza Singapore Pte Ltd,71,KILLINEY ROAD,,,239527,103.839417,1.298754,71 KILLINEY ROAD  
448,Domino's Pizza Singapore Pte Ltd,505,WEST COAST DRIVE,01-210,,120505,103.759983,1.312281,505 WEST COAST DRIVE 01-210 
449,Domino's Pizza Singapore Pte Ltd,216,"ANG MO KIO AVE 4, KEBUN BARU CC",,,569897,103.8375495,1.373013,"216 ANG MO KIO AVE 4, KEBUN BARU CC  "
450,Domino's Pizza Singapore Pte Ltd,557,"Bukit Timah Road, Crown Centre",01-03,,269694,103.811157,1.323027,"557 Bukit Timah Road, Crown Centre 01-03 "
451,Domino's Pizza Singapore Pte Ltd,918,EAST COAST ROAD,,,459111,103.9247685,1.312326,918 EAST COAST ROAD  
452,Domino's Pizza Singapore Pte Ltd,574,"Ang Mo Kio Avenue 10,  #01-1827",,,560574,103.8563955,1.370898,"574 Ang Mo Kio Avenue 10,  #01-1827  "
453,Domino's Pizza Singapore Pte Ltd,462,TAMPINES STREET 44,01-76,,520462,103.955112,1.359009,462 TAMPINES STREET 44 01-76 
454,Domino's Pizza Singapore Pte Ltd,146,ARAB STREET,,,199830,103.858029,1.302678,146 ARAB STREET  
455,Domino's Pizza Singapore Pte Ltd,1,YISHUN AVENUE 9,01-03,NEE SOON EAST COMMUNITY CLUB,768893,103.8385665,1.430649,1 YISHUN AVENUE 9 01-03 NEE SOON EAST COMMUNITY CLUB
456,Domino's Pizza Singapore Pte Ltd,6,JURONG WEST AVENUE 1,01-03,HONG KAH EAST COMMUNITY CLUB,649520,103.725351,1.350468,6 JURONG WEST AVENUE 1 01-03 HONG KAH EAST COMMUNITY CLUB
457,Domino's Pizza Singapore Pte Ltd,46,TELOK BLANGAH DRIVE,,,100046,103.809852,1.271691,46 TELOK BLANGAH DRIVE  
458,Domino's Pizza Singapore Pte Ltd,13,STANLEY STREET,,,068732,103.847931,1.280349,13 STANLEY STREET  
459,Domino's Pizza Singapore Pte Ltd,161,Bukit Merah Central,,,150161,103.8158775,1.2834539999999999,161 Bukit Merah Central  
460,Domino's Pizza Singapore Pte Ltd,1,HILLVIEW RISE,01-03,HILLVIEW COMMUNITY CLUB,667970,103.7641100805,1.3619300183,1 HILLVIEW RISE 01-03 HILLVIEW COMMUNITY CLUB
462,Dough Culture Pte Ltd,1,WOODLANDS SQUARE,01,CAUSEWAY POINT,738099,103.785984,1.435878,1 WOODLANDS SQUARE 01 CAUSEWAY POINT
463,Dough Culture Pte Ltd,311,New Upper Changi Road,B2-27,Bedok Mall,467360,103.9292685,1.324773,311 New Upper Changi Road B2-27 Bedok Mall
464,Dough Culture Pte Ltd,4,TAMPINES CENTRAL 5,B1-K16,TAMPINES MALL,529510,103.944663,1.352592,4 TAMPINES CENTRAL 5 B1-K16 TAMPINES MALL
465,Dough Culture Pte Ltd,53,ANG MO KIO AVENUE 3,B2-31,AMK HUB,569933,103.8484125,1.3691879999999998,53 ANG MO KIO AVENUE 3 B2-31 AMK HUB
466,Dough Culture Pte Ltd,5,Changi Business Park Central 1,,Changi City Point,486038,103.963023,1.334088,5 Changi Business Park Central 1  Changi City Point
467,Dough Culture Pte Ltd,83,PUNGGOL CENTRAL,01-K5,WATERWAY POINT (EAST WING),828761,103.9018000589,1.4057800345,83 PUNGGOL CENTRAL 01-K5 WATERWAY POINT (EAST WING)
468,Dough Culture Pte Ltd,1,Northpoint Drive,B3-147,NorthPoint City (South Wing),S738019,103.83671,1.4277600000000001,1 Northpoint Drive B3-147 NorthPoint City (South Wing)
469,Dough Culture Pte Ltd,23,SERANGOON CENTRAL,B2-09,NEX MALL,556083,103.872294,1.350765,23 SERANGOON CENTRAL B2-09 NEX MALL
470,Dough Culture Pte Ltd,930,YISHUN AVENUE 2,,NORTHPOINT,769098,103.835979,1.429344,930 YISHUN AVENUE 2  NORTHPOINT
471,D'Pastriez,11,Tanjong Katong road,B1-K5,One Km,437157,103.8947265,1.314603,11 Tanjong Katong road B1-K5 One Km
472,DRINK STALL (S7) @ 89.7 SUPPER CLUB,5,CHANGI VILLAGE ROAD,01-2035,,500005,103.986828,1.388844,5 CHANGI VILLAGE ROAD 01-2035 
473,DRINKS & DESSERT (S9) @ 89.7 Supper Club (Geylang East),1016,GEYLANG EAST AVENUE 3,01-165,,389731,103.891428,1.318824,1016 GEYLANG EAST AVENUE 3 01-165 
474,Drinks & Desserts (S8) @ Quad Cafe,60,NANYANG DRIVE,B1,School of Biological Sciences,637551,103.6789000183,1.3446399583,60 NANYANG DRIVE B1 School of Biological Sciences
475,Drinks & Desserts (S8) @ Tang Tea House Jurong West,414,JURONG WEST STREET 42,01-783,,640414,103.726035,1.352817,414 JURONG WEST STREET 42 01-783 
476,DRINKS & NOODLES (S1) @ KHUN THAI CCK,10,CHOA CHU KANG AVENUE 4,0 1-18/19,CHOA CHU KANG MRT STATION,689810,103.744296,1.385109,10 CHOA CHU KANG AVENUE 4 0 1-18/19 CHOA CHU KANG MRT STATION
477,Drinks Dessert Fruits (S1) @ Cantine Jurong Point,1,JURONG WEST CENTRAL 2,B   1 -42/43/44,JURONG POINT,648886,103.7067075,1.339632,1 JURONG WEST CENTRAL 2 B   1 -42/43/44 JURONG POINT
478,DRINKS (S1) BAGUS HARBOUR FRONT,1,MARITIME SQUARE,0  1-103/108,HARBOURFRONT CENTRE,099253,103.819437,1.26306,1 MARITIME SQUARE 0  1-103/108 HARBOURFRONT CENTRE
479,D'RUBINAH EATING CORNER,846,YISHUN RING ROAD,01-3659,YISHUN NEW TOWN,760846,103.8346425,1.416789,846 YISHUN RING ROAD 01-3659 YISHUN NEW TOWN
480,D'RUBINAH RESTAURANT,2,WOODLANDS SECTOR 1,01-28,WOODLANDS SPECTRUM,738068,103.807602,1.454265,2 WOODLANDS SECTOR 1 01-28 WOODLANDS SPECTRUM
481,D'RUBINAH RESTAURANT,592,SEMBAWANG ROAD,,SEMBAWANG SPRINGS ESTATE,758451,103.8250215,1.440612,592 SEMBAWANG ROAD  SEMBAWANG SPRINGS ESTATE
482,D'RUBINAH RESTAURANT,10,ANG MO KIO STREET 65,06-01,TECHPOINT,569059,103.8493485,1.389267,10 ANG MO KIO STREET 65 06-01 TECHPOINT
483,DUNKIN' DONUTS,20,TAMPINES CENTRAL 1,01-20,TAMPINES MRT STATION,529538,103.945086,1.353483,20 TAMPINES CENTRAL 1 01-20 TAMPINES MRT STATION
484,DUNKIN' DONUTS,53,ANG MO KIO AVENUE 3,01,AMK HUB,569933,103.8484125,1.3691879999999998,53 ANG MO KIO AVENUE 3 01 AMK HUB
485,DUNKIN' DONUTS,1,MARITIME SQUARE,01-102,HARBOURFRONT CENTRE,099253,103.819437,1.26306,1 MARITIME SQUARE 01-102 HARBOURFRONT CENTRE
486,DUNKIN' DONUTS,2,JURONG EAST STREET 21,01-42,IMM BUILDING,609601,103.7464605,1.334988,2 JURONG EAST STREET 21 01-42 IMM BUILDING
487,DUNKIN' DONUTS,80,AIRPORT BOULEVARD,02-K17,CHANGI AIRPORT TERMINAL 1,819642,103.990842,1.362537,80 AIRPORT BOULEVARD 02-K17 CHANGI AIRPORT TERMINAL 1
488,DUNKIN' DONUTS,311,NEW UPPER CHANGI ROAD,B2-K7,BEDOK MALL,467360,103.9292685,1.324773,311 NEW UPPER CHANGI ROAD B2-K7 BEDOK MALL
489,DUNKIN' DONUTS,2,JURONG EAST CENTRAL 1,B1-K06A,J CUBE MALL,609731,103.7401785,1.333269,2 JURONG EAST CENTRAL 1 B1-K06A J CUBE MALL
490,DUNKIN' DONUTS,14,SCOTTS ROAD,01-03,FAR EAST PLAZA,228213,103.8336075,1.307268,14 SCOTTS ROAD 01-03 FAR EAST PLAZA
491,DUNKIN' DONUTS,1,WOODLANDS SQUARE,,CAUSEWAY POINT,738099,103.785984,1.435878,1 WOODLANDS SQUARE  CAUSEWAY POINT
492,DUNKIN' DONUTS,2,ORCHARD TURN,B4-60,ION ORCHARD,238801,103.831722,1.30437,2 ORCHARD TURN B4-60 ION ORCHARD
493,DUNKIN' DONUTS,180,KITCHENER ROAD,B1-K12,CITY SQUARE MALL,208539,103.856625,1.31139,180 KITCHENER ROAD B1-K12 CITY SQUARE MALL
494,DUNKIN' DONUTS,83,PUNGGOL CENTRAL,B1-K3,WATERWAY POINT (WEST WING),828761,103.9018000589,1.4057800345,83 PUNGGOL CENTRAL B1-K3 WATERWAY POINT (WEST WING)
495,DUNKIN' DONUTS,30,SEMBAWANG DRIVE,01-27A,SUN PLAZA,757713,103.8195,1.448199,30 SEMBAWANG DRIVE 01-27A SUN PLAZA
496,DUNKIN' DONUTS,930,YISHUN AVENUE 2,B1-17,NORTHPOINT,769098,103.835979,1.429344,930 YISHUN AVENUE 2 B1-17 NORTHPOINT
497,Dynamic Dining House,5,CHANGI VILLAGE ROAD,01- 2039/2041,,500005,103.986828,1.388844,5 CHANGI VILLAGE ROAD 01- 2039/2041 
498,Earle Swensens Restaurant,1,HARBOURFRONT WALK,0 2-117,VIVO CITY,098585,103.822398,1.264383,1 HARBOURFRONT WALK 0 2-117 VIVO CITY
499,Earle Swensens Restaurant,3,GATEWAY DRIVE,03-10/11,WESTGATE MALL,608532,103.742658,1.334133,3 GATEWAY DRIVE 03-10/11 WESTGATE MALL
500,East West Noodle (S11) @ Matrix Cafeteria ITE College West,1,Choa Chu Kang Grove,02-01,BLK 3 ITE COLLEGE WEST,688236,103.7515005,1.374309,1 Choa Chu Kang Grove 02-01 BLK 3 ITE COLLEGE WEST
501,Eatzi Gourmet Bistro,60,YISHUN AVENUE 4,01-V2,Safra Yishun Country Club,769027,103.841136,1.424592,60 YISHUN AVENUE 4 01-V2 Safra Yishun Country Club
502,Eatzi Gourmet Bistro,2,Ang Mo Kio Drive,01-02/03/04,ITE College Central,567220,103.8565899195,1.3765700405,2 Ang Mo Kio Drive 01-02/03/04 ITE College Central
503,Eatzi Gourmet Bistro,,60 Paya Lebar Road,B1-15,Paya Lebar Square,409051,103.89258,1.3188149999999998, 60 Paya Lebar Road B1-15 Paya Lebar Square
504,EDMOND CHICKEN RICE,46-1,COMMONWEALTH DRIVE,0 1-358,,140461,103.798386,1.299483,46-1 COMMONWEALTH DRIVE 0 1-358 
505,EDMOND CHICKEN RICE,11,TELOK BLANGAH CRESCENT,01-110,,090011,103.8186495,1.27737,11 TELOK BLANGAH CRESCENT 01-110 
506,EIGHTEEN CHEFS,311,New Upper Changi Road,02-03/04,Bedok Mall,467360,103.9292685,1.324773,311 New Upper Changi Road 02-03/04 Bedok Mall
507,EIGHTEEN CHEFS,8,GRANGE ROAD,04-02,CATHAY CINELEISURE  ORCHARD,239695,103.8364425,1.301499,8 GRANGE ROAD 04-02 CATHAY CINELEISURE  ORCHARD
508,EIGHTEEN CHEFS,2,HANDY ROAD,B1-19/20,THE CATHAY,229233,103.8477915,1.299186,2 HANDY ROAD B1-19/20 THE CATHAY
509,EIGHTEEN CHEFS,1,Northpoint Drive,02-128,North Point City,768019,103.8361725,1.427868,1 Northpoint Drive 02-128 North Point City
510,EIGHTEEN CHEFS,2,JURONG EAST CENTRAL 1,02-13,JCUBE,609731,103.7401785,1.333269,2 JURONG EAST CENTRAL 1 02-13 JCUBE
511,EIGHTEEN CHEFS,200,VICTORIA STREET,04-06,BUGIS JUNCTION,188021,103.8553875,1.298988,200 VICTORIA STREET 04-06 BUGIS JUNCTION
512,EIGHTEEN CHEFS,1,JELEBU ROAD,02-19,BUKIT PANJANG PLAZA,677743,103.7641455,1.380321,1 JELEBU ROAD 02-19 BUKIT PANJANG PLAZA
513,EIGHTEEN CHEFS,21,CHOA CHU KANG NORTH 6,#  B1-29/30,YEWTEE POINT,689578,103.746663,1.3970609999999999,21 CHOA CHU KANG NORTH 6 #  B1-29/30 YEWTEE POINT
514,EIGHTEEN CHEFS,23,Serangoon Central,01-57,NEX,556083,103.872294,1.350765,23 Serangoon Central 01-57 NEX
515,EIGHTEEN CHEFS,3,SIMEI STREET 6,01-12,EASTPOINT MALL,528833,103.953384,1.342719,3 SIMEI STREET 6 01-12 EASTPOINT MALL
516,EIGHTEEN CHEFS,1,PASIR RIS CLOSE,0 2-330/331,E!AVENUE,519599,103.9548285,1.377495,1 PASIR RIS CLOSE 0 2-330/331 E!AVENUE
517,EIGHTEEN CHEFS,1,Vista Exchange Green,02-22,The Star Vista,138617,103.788153,1.306719,1 Vista Exchange Green 02-22 The Star Vista
518,EIGHTEEN CHEFS,445,BEDOK NORTH STREET 1,0 1-05/06,DJITSUN MALL,469661,103.9295835,1.326114,445 BEDOK NORTH STREET 1 0 1-05/06 DJITSUN MALL
519,EIGHTEEN CHEFS SIGNATURE,1,Northpoint Drive,02-128/129,South Wing of North Point City,768019,103.8361725,1.427868,1 Northpoint Drive 02-128/129 South Wing of North Point City
520,Empire Cuisine,4,ANG MO KIO AVENUE 12,01-01,CFM BUILDING,569498,103.866381,1.372563,4 ANG MO KIO AVENUE 12 01-01 CFM BUILDING
521,Enak Corner (S7) @ 27 Chang Cheng Mee Wah,27,WOODLANDS LINK,01-01,Chang Cheng HQ,738732,103.8109005,1.452186,27 WOODLANDS LINK 01-01 Chang Cheng HQ
522,Enak Corner (S9) @ Changi General Hospital,2,SIMEI STREET 3,01-20,CHANGI GENERAL HOSPITAL,529889,103.9493385,1.340091,2 SIMEI STREET 3 01-20 CHANGI GENERAL HOSPITAL
523,Enak Kitchen (S2) @ FoodTastic,Block 818,Choa Chu Kang Avenue 1,01-01,,680818,103.7488275,1.3780350000000001,Block 818 Choa Chu Kang Avenue 1 01-01 
525,Encik Tan,380,UPPER BUKIT TIMAH ROAD,01-444,Rail Mall,678040,103.768173,1.357767,380 UPPER BUKIT TIMAH ROAD 01-444 Rail Mall
526,Encik Tan,3,TEMASEK BOULEVARD North Wing Tower 2,B1-149,SUNTEC CITY MALL,038983,103.859307,1.295001,3 TEMASEK BOULEVARD North Wing Tower 2 B1-149 SUNTEC CITY MALL
527,Encik Tan,1,Vista Exchange Green,01-20/21,Star Vista,138617,103.788153,1.306719,1 Vista Exchange Green 01-20/21 Star Vista
528,Encik Tan,2,JURONG EAST CENTRAL 1,B1-K05,JCUBE,609731,103.7401785,1.333269,2 JURONG EAST CENTRAL 1 B1-K05 JCUBE
529,Encik Tan,201,VICTORIA STREET,01-02/K1,,188067,103.8546405,1.2994919999999999,201 VICTORIA STREET 01-02/K1 
530,Encik Tan,930,YISHUN AVENUE 2,01-07,NORTHPOINT,769098,103.835979,1.429344,930 YISHUN AVENUE 2 01-07 NORTHPOINT
531,Encik Tan,1,SENGKANG SQUARE,02-29,COMPASS ONE,545078,103.8946200667,1.391930055,1 SENGKANG SQUARE 02-29 COMPASS ONE
532,Encik Tan,1,BUKIT BATOK CENTRAL LINK,01-01/36,WEST MALL,658713,103.749354,1.350018,1 BUKIT BATOK CENTRAL LINK 01-01/36 WEST MALL
533,Encik Tan,1,HARBOURFRONT WALK,B2-37,VIVO CITY,098585,103.822398,1.264383,1 HARBOURFRONT WALK B2-37 VIVO CITY
534,Encik Tan,313,ORCHARD ROAD,B 3-39/40,313@somerset,238895,103.837986,1.301193,313 ORCHARD ROAD B 3-39/40 313@somerset
535,Encik Tan,21,CHOA CHU KANG NORTH 6,B1-28,YEWTEE POINT,689578,103.746663,1.3970609999999999,21 CHOA CHU KANG NORTH 6 B1-28 YEWTEE POINT
536,Encik Tan,460,ALEXANDRA ROAD,01-32,ALEXANDRA RETAIL CENTRE,119963,103.8018,1.27351,460 ALEXANDRA ROAD 01-32 ALEXANDRA RETAIL CENTRE
537,Encik Tan,3,SIMEI STREET 6,B1-12,EASTPOINT MALL,528833,103.953384,1.342719,3 SIMEI STREET 6 B1-12 EASTPOINT MALL
538,Encik Tan,,51 Tampines Ave 4,01-12,Our Tampines Hub,529684,103.9404105,1.353141, 51 Tampines Ave 4 01-12 Our Tampines Hub
539,Encik Tan,311,NEW UPPER CHANGI ROAD,B1-41/42,Bedok Mall,467360,103.9292685,1.324773,311 NEW UPPER CHANGI ROAD B1-41/42 Bedok Mall
540,Encik Tan,1,Stadium Place,01-32,Kallang Wave Mall,397628,103.873149,1.303074,1 Stadium Place 01-32 Kallang Wave Mall
541,Encik Tan,11,Tanjong Katong Road,B1-02,ONE KM,437157,103.8947265,1.314603,11 Tanjong Katong Road B1-02 ONE KM
542,Encik Tan,83,Punggol Central,B2-03,Waterway Point,828761,103.9018000589,1.4057800345,83 Punggol Central B2-03 Waterway Point
543,Encik Tan,10,EUNOS ROAD 8,B  1-156/159,SINGAPORE POST CENTRE,408600,103.894506,1.318959,10 EUNOS ROAD 8 B  1-156/159 SINGAPORE POST CENTRE
544,Encik Tan Pao Pao,3,"TEMASEK BOULEVARD, NORTH WING TOWER 2",B1-149,SUNTEC CITY MALL,038983,103.859307,1.295001,"3 TEMASEK BOULEVARD, NORTH WING TOWER 2 B1-149 SUNTEC CITY MALL"
545,Epikebabs,8,WILKIE ROAD,01-17,WILKIE EDGE,228095,103.8495105,1.30212,8 WILKIE ROAD 01-17 WILKIE EDGE
546,Evertop Family Restaurant,89 / 91,JOO CHIAT ROAD,00-00,,427383,103.90138,1.3108,89 / 91 JOO CHIAT ROAD 00-00 
547,Evertop Hainanese Boneless Chicken Rice,354,CLEMENTI AVENUE 2,01-259,CLEMENTI AVENUE 2 SHOPPING CENTRE,120354,103.7708595,1.313532,354 CLEMENTI AVENUE 2 01-259 CLEMENTI AVENUE 2 SHOPPING CENTRE
548,Fatimah (S1) @ThirdPlace,18,TUAS AVENUE 7,,,639272,103.6446255,1.333188,18 TUAS AVENUE 7  
549,FATIMAH KITCHEN @ THIRDPLACE,1,CLEANTECH LOOP,02-32,CLEANTECH ONE,637141,103.6923795,1.3554,1 CLEANTECH LOOP 02-32 CLEANTECH ONE
550,Fatimah Nasi Padang (S9) @ Thirdplace,1,STARS AVENUE,04-01,MEDIACORP CAMPUS,138507,103.792221,1.295559,1 STARS AVENUE 04-01 MEDIACORP CAMPUS
551,FATTY BOM BOM (S1) @ ST 11 Coffee Shop,167,Woodlands St 11,,ST11 Coffee House,730167,103.7760399267,1.4333100516,167 Woodlands St 11  ST11 Coffee House
552,Fatty Bom Bom SIZZLE (S2) @ Grains & Hops Food Court Bistro,978,Toa Payoh North,02-01,Green Marks Buildings,319001,103.851396,1.343133,978 Toa Payoh North 02-01 Green Marks Buildings
553,Fire Western N Grill (S10)@Foodjunction Eastpoint,3,SIMEI STREET 6,04-04,EASTPOINT MALL,528833,103.953384,1.342719,3 SIMEI STREET 6 04-04 EASTPOINT MALL
554,Fire Western N Grill (S6) @ Orchis T1 Canteen,80,AIRPORT BOULEVARD,UB,CHANGI AIRPORT TERMINAL 1,819642,103.990842,1.362537,80 AIRPORT BOULEVARD UB CHANGI AIRPORT TERMINAL 1
555,Fire Western N Grill (S9) @The Food Market Century Square,2,TAMPINES CENTRAL 5,03-19,CENTURY SQUARE,529509,103.9437855,1.352358,2 TAMPINES CENTRAL 5 03-19 CENTURY SQUARE
556,Fire Western N Grill Pasta & Grill (S6) @ Foodjunction NEX,23,Serangoon Central,04-36/37,Nex Shopping Centre,556083,103.872294,1.350765,23 Serangoon Central 04-36/37 Nex Shopping Centre
557,Fish & Chicks,531,ANG MO KIO AVENUE 10,01-2429,Happy Hawkers,560531,103.854384,1.3733279999999999,531 ANG MO KIO AVENUE 10 01-2429 Happy Hawkers
558,Fish & Chicks,8,GRANGE ROAD,B1-01,CATHAY CINELEISURE  ORCHARD,239695,103.8364425,1.301499,8 GRANGE ROAD B1-01 CATHAY CINELEISURE  ORCHARD
559,Fish & Chicks,,204 Bedok North Street 1,01-393,,460204,103.9299975,1.326357, 204 Bedok North Street 1 01-393 
560,FISH & CO RESTAURANTS PTE LTD,83,Punggol Central,B1-18,WATERWAY POINT (EAST WING),828761,103.9018000589,1.4057800345,83 Punggol Central B1-18 WATERWAY POINT (EAST WING)
561,FISH & CO RESTAURANTS PTE LTD,3,GATEWAY DRIVE,01-03,WESTGATE MALL,608532,103.742658,1.334133,3 GATEWAY DRIVE 01-03 WESTGATE MALL
562,FISH & CO RESTAURANTS PTE LTD,1,HARBOURFRONT WALK,0 2-116,VIVO CITY,098585,103.822398,1.264383,1 HARBOURFRONT WALK 0 2-116 VIVO CITY
563,FISH & CO RESTAURANTS PTE LTD,290,ORCHARD ROAD,B 1-35/36,"PARAGON, THE",238859,103.835988,1.3040370000000001,"290 ORCHARD ROAD B 1-35/36 PARAGON, THE"
564,FISH & CO RESTAURANTS PTE LTD,201,VICTORIA STREET,04-07,Bugis+,188067,103.8546405,1.2994919999999999,201 VICTORIA STREET 04-07 Bugis+
565,FISH & CO RESTAURANTS PTE LTD,1,JURONG WEST CENTRAL 2,02-20E,JURONG POINT,648886,103.7067075,1.339632,1 JURONG WEST CENTRAL 2 02-20E JURONG POINT
566,FISH & CO RESTAURANTS PTE LTD,238,THOMSON ROAD,03-11,NOVENA SQUARE,307683,103.8434,1.31968,238 THOMSON ROAD 03-11 NOVENA SQUARE
567,FISH & CO RESTAURANTS PTE LTD,252,NORTH BRIDGE ROAD,B  1--63/64,RAFFLES CITY SHOPPING CENTRE,179103,103.8529000084,1.2944899911,252 NORTH BRIDGE ROAD B  1--63/64 RAFFLES CITY SHOPPING CENTRE
568,FISH & CO RESTAURANTS PTE LTD,33,Sengkang West Avenue,03-22/K4/K5,SELETAR MALL,797653,103.876236,1.3914,33 Sengkang West Avenue 03-22/K4/K5 SELETAR MALL
569,FISH & CO RESTAURANTS PTE LTD,53,ANG MO KIO AVENUE 3,02-03,AMK HUB,569933,103.8484125,1.3691879999999998,53 ANG MO KIO AVENUE 3 02-03 AMK HUB
570,FISH & CO RESTAURANTS PTE LTD,311,NEW UPPER CHANGI ROAD,01-71/72,BEDOK MALL,467360,103.9292685,1.324773,311 NEW UPPER CHANGI ROAD 01-71/72 BEDOK MALL
571,FISH & CO RESTAURANTS PTE LTD,10,TAMPINES CENTRAL 1,04-11,TAMPINES ONE,529536,103.9450185,1.35432,10 TAMPINES CENTRAL 1 04-11 TAMPINES ONE
572,FISH & CO RESTAURANTS PTE LTD,60,AIRPORT BOULEVARD,36-85,CHANGI AIRPORT TERMINAL 2 (VIEWING MALL NORTH),819643,103.9895145,1.3541940000000001,60 AIRPORT BOULEVARD 36-85 CHANGI AIRPORT TERMINAL 2 (VIEWING MALL NORTH)
573,Fish Soup (R7) @ Staff Canteen by Kopitiam Changi Airport Terminal 2,60,AIRPORT BOULEVARD,3M-07,CHANGI AIRPORT TERMINAL 2,819643,103.9895145,1.3541940000000001,60 AIRPORT BOULEVARD 3M-07 CHANGI AIRPORT TERMINAL 2
574,Fish Soup (S2) @ Bagus Causeway Point,1,WOODLANDS SQUARE,07-03,CAUSEWAY POINT,738099,103.785984,1.435878,1 WOODLANDS SQUARE 07-03 CAUSEWAY POINT
575,Fish Soup (S4) @ Cantine Jurong Point,1,JURONG WEST CENTRAL 2,B   1 -42/43/44,JURONG POINT,648886,103.7067075,1.339632,1 JURONG WEST CENTRAL 2 B   1 -42/43/44 JURONG POINT
576,Fish Soup (S4) @ Cantine Paya Lebar Square,60,Paya Lebar Road,B1-51,Paya Lebar Square,409051,103.89258,1.3188149999999998,60 Paya Lebar Road B1-51 Paya Lebar Square
577,Fish Soup (S5) @ Healthy Kopitiam NTFGH,01,Jurong East Street 21,02-01,Ng Teng Fong General Hospital,609606,103.7442825,1.334826,01 Jurong East Street 21 02-01 Ng Teng Fong General Hospital
578,Fish Soup (S6) @ Koufu Sengkang General and Community Hospital,1,Anchorvale Street,01-21,Sengkang General Hospital,544835,103.891365,1.395702,1 Anchorvale Street 01-21 Sengkang General Hospital
579,FISH SOUP (S8) @ LOT ONE SHOPPER'S MALL,21,CHOA CHU KANG AVE 4,04-15/16,LOT ONE SHOPPER'S MALL,689812,103.7449755,1.38501,21 CHOA CHU KANG AVE 4 04-15/16 LOT ONE SHOPPER'S MALL
580,FISH SOUP BY THAKSIN BEEF NOODLE,2,SEAH IM ROAD,01-38,Seah Im Food Centre,099114,103.819248,1.26657,2 SEAH IM ROAD 01-38 Seah Im Food Centre
581,fish tales,,2 Orchard Link,,"02-18B, 26 & 27, *SCAPE",237978,103.8359835,1.301256," 2 Orchard Link  02-18B, 26 & 27, *SCAPE"
582,fish tales,351,BEDOK ROAD,,,469539,103.9471335,1.331451,351 BEDOK ROAD  
583,Fishball Noodle (S10) @ Cantine Paya Lebar Square,60,Paya Lebar Road,B1-51,Paya Lebar Square,409051,103.89258,1.3188149999999998,60 Paya Lebar Road B1-51 Paya Lebar Square
584,Fishball Noodle (S10) @ Healthy Kopitiam KKH,100,BUKIT TIMAH ROAD,01-28,KK WOMEN'S AND CHILDREN'S HOSPITAL,229899,103.846761,1.3104900000000002,100 BUKIT TIMAH ROAD 01-28 KK WOMEN'S AND CHILDREN'S HOSPITAL
586,Fisher's Tavern Seafood,,6 Yishun Industrial Street 1,01-01,North View Bizhub,768090,103.843665,1.436679, 6 Yishun Industrial Street 1 01-01 North View Bizhub
587,Fitra Chicken Rice (M3) @ Foodjunction Junction 8,9,BISHAN PLACE,04-01,JUNCTION 8 SHOPPING CENTRE,579837,103.8485655,1.350711,9 BISHAN PLACE 04-01 JUNCTION 8 SHOPPING CENTRE
588,Fitra Chicken Rice (M3) @ Foodjunction Junction 8,9,BISHAN PLACE,04-01,JUNCTION 8 SHOPPING CENTRE,579837,103.8485655,1.350711,9 BISHAN PLACE 04-01 JUNCTION 8 SHOPPING CENTRE
589,Fitra Chicken Rice (S10)@Foodjunction Bugis Junction,200,VICTORIA STREET,03-30,BUGIS JUNCTION,188021,103.8553875,1.298988,200 VICTORIA STREET 03-30 BUGIS JUNCTION
590,Fitra Chicken Rice (S11) @ FoodJunction Eastpoint,3,SIMEI STREET 6,04-04,EASTPOINT MALL,528833,103.953384,1.342719,3 SIMEI STREET 6 04-04 EASTPOINT MALL
591,Fitra Chicken Rice (S18)@Foodjunction Raffles City,252,NORTH BRIDGE ROAD,03-15,RAFFLES CITY SHOPPING CENTRE,179103,103.8529000084,1.2944899911,252 NORTH BRIDGE ROAD 03-15 RAFFLES CITY SHOPPING CENTRE
592,Fitra Chicken Rice (S3) @Foodjunction One Raffles Place,1,RAFFLES PLACE,05-07,OUB CENTRE,048616,103.8508875,1.284525,1 RAFFLES PLACE 05-07 OUB CENTRE
594,Fitra Chicken Rice (S4)@Foodjunction One Km,11,Tanjong Katong Road,03-38 - 40,ONE KM,437157,103.8947265,1.314603,11 Tanjong Katong Road 03-38 - 40 ONE KM
595,FITRA CHICKEN RICE (S55) @ KOPITIAM SENGKANG,10,Sengkang Square,01-01,Kopitiam Foodcourt,544829,103.8938535,1.391589,10 Sengkang Square 01-01 Kopitiam Foodcourt
596,Fitra Chicken Rice (S6)@NTUC Foodfare The Clementi Mall,3155,Commonwealth Avenue West,04-21/22,The Clementi Mall,129588,103.7644245,1.3149,3155 Commonwealth Avenue West 04-21/22 The Clementi Mall
597,Fitra Chicken Rice (S7) @ Orchis T1 Canteen,80,AIRPORT BOULEVARD,UB,CHANGI AIRPORT TERMINAL 1,819642,103.990842,1.362537,80 AIRPORT BOULEVARD UB CHANGI AIRPORT TERMINAL 1
598,Fitra Chicken Rice (S8) @Foodjunction NEX,23,Serangoon Central,04-36/37,NEX,556083,103.872294,1.350765,23 Serangoon Central 04-36/37 NEX
599,Fitra Foods Hainanese Chicken Rice (S11) @ FoodRepublic City Square,180,KITCHENER ROAD,04-31,CITY SQUARE MALL,208539,103.856625,1.31139,180 KITCHENER ROAD 04-31 CITY SQUARE MALL
600,Fitra Hainanese Chicken Rice (S1)@Food Republic Wisma Atria,435,ORCHARD ROAD,0 4-02/38,WISMA ATRIA,238877,103.83318,1.303848,435 ORCHARD ROAD 0 4-02/38 WISMA ATRIA
601,Fitra Western/Chicken Rice (MR2)@Foodjunction Rivervale Mall,11,RIVERVALE CRESCENT,0 1-01/03,RIVERVALE MALL,545082,103.904226,1.392228,11 RIVERVALE CRESCENT 0 1-01/03 RIVERVALE MALL
602,FLAMING SPICE,1,PASIR RIS CLOSE,01-309,E!HUB@DOWNTOWN EAST,519599,103.9555299339,1.3771599484000001,1 PASIR RIS CLOSE 01-309 E!HUB@DOWNTOWN EAST
603,Flavour Flings,121,HOUGANG AVENUE 1,01-1348,,530121,103.886937,1.353861,121 HOUGANG AVENUE 1 01-1348 
604,Fong Seng Fast Food Nasi Lemak,22,Clementi Road,,,129751,103.7687265,1.292994,22 Clementi Road  
605,FONG SENG NASI LEMAK,101,PASIR PANJANG ROAD,,,118527,103.7948265,1.27503,101 PASIR PANJANG ROAD  
606,FOOD FEST,461,CLEMENTI ROAD,01-1.24,Annexe Building Block B @ SIM,599491,103.7762955,1.328967,461 CLEMENTI ROAD 01-1.24 Annexe Building Block B @ SIM
607,Foodlicious (S6) @ Awal Makan Place,60,PASIR RIS DRIVE 3,01,ARANDA COUNTRY CLUB,519497,103.9534425,1.375704,60 PASIR RIS DRIVE 3 01 ARANDA COUNTRY CLUB
608,FRIAR'S @ UNIVERSAL STUDIOS SINGAPORE (RWS),30,SENTOSA GATEWAY,01-333,,098269,103.8230145,1.2539609999999999,30 SENTOSA GATEWAY 01-333 
609,Fried Chicken Master,23,Serangoon Central,B2-48A,Nex,556083,103.872294,1.350765,23 Serangoon Central B2-48A Nex
610,Fried Items by Straits Wok (S8) @ Kopitiam T2,60,AIRPORT BOULEVARD,06-10,CHANGI AIRPORT TERMINAL 2,819643,103.9895145,1.3541940000000001,60 AIRPORT BOULEVARD 06-10 CHANGI AIRPORT TERMINAL 2
611,Fried Kway Teow (S5) @ Bagus Causeway Point,1,WOODLANDS SQUARE,07-03,CAUSEWAY POINT,738099,103.785984,1.435878,1 WOODLANDS SQUARE 07-03 CAUSEWAY POINT
612,Fried Kway Teow (S8) @ On The Ridge by Kopitiam NUH,1,Lower Kent Ridge Road,05-01,One@KentRidge,119082,103.78396,1.29355,1 Lower Kent Ridge Road 05-01 One@KentRidge
613,Fried Rice (S1) NTUC Foodfare AMKHub,53,ANG MO KIO AVENUE 3,03-12,AMK HUB,569933,103.8484125,1.3691879999999998,53 ANG MO KIO AVENUE 3 03-12 AMK HUB
614,Fried Yong Tau FU (S5) @ Quad Cafe,60,NANYANG DRIVE,B1,School of Biological Sciences,637551,103.6789000183,1.3446399583,60 NANYANG DRIVE B1 School of Biological Sciences
615,FS Cafe,27,WOODLANDS AVENUE,01-03,REPUBLIC POLYTECHNIC,738964,103.7834055,1.444689,27 WOODLANDS AVENUE 01-03 REPUBLIC POLYTECHNIC
616,FS Cafe,535,CLEMENTI ROAD,01-01,NGEE ANN POLYTECHNIC,599489,103.7771099753,1.3331799683,535 CLEMENTI ROAD 01-01 NGEE ANN POLYTECHNIC
617,Fusion Delights (S1) @ Mr Teh Tarik Eating House,728,ANG MO KIO AVENUE 6,01-4200,,560728,103.845681,1.372626,728 ANG MO KIO AVENUE 6 01-4200 
618,Fusion Delights (S2) @ Mr Teh Tarik,204,BEDOK NORTH STREET 1,01-435,,460204,103.9299975,1.326357,204 BEDOK NORTH STREET 1 01-435 
619,Fusion Delights (S2) @ Mr Teh Tarik Eating House,625,ELIAS ROAD,01-332,ELIAS MALL,510625,103.9419765,1.3786019999999999,625 ELIAS ROAD 01-332 ELIAS MALL
620,fusion spoon,1,CLUNY ROAD,B1-00,NATIONAL PARKS BOARD,259569,103.8163455,1.3125149999999999,1 CLUNY ROAD B1-00 NATIONAL PARKS BOARD
621,Fusion Western (S7) @ 449 Coffee Shop,449,Clementi Ave 3,01-211,,120449,103.764996,1.313208,449 Clementi Ave 3 01-211 
622,G V MEAT DISTRIBUTOR,665,BUFFALO ROAD,,ZHUJIAO CENTRE (TEKKA MARKET),210665,103.850532,1.306206,665 BUFFALO ROAD  ZHUJIAO CENTRE (TEKKA MARKET)
623,GADO & GRILL,60,PAYA LEBAR ROAD,B1-08,PAYA LEBAR SQUARE,409051,103.89258,1.3188149999999998,60 PAYA LEBAR ROAD B1-08 PAYA LEBAR SQUARE
624,GADO & GRILL,1,RAFFLES PLACE,B1-20,ONE RAFFLES PLACE,048616,103.8508875,1.284525,1 RAFFLES PLACE B1-20 ONE RAFFLES PLACE
625,GADO & GRILL,1,NORTHPOINT DRIVE,B1-198,NORTHPOINT CITY,768019,103.8361725,1.427868,1 NORTHPOINT DRIVE B1-198 NORTHPOINT CITY
626,GELARE,1,Vista Exchange Green,02-27,The Star Vista,138617,103.788153,1.306719,1 Vista Exchange Green 02-27 The Star Vista
627,GELARE,83,PUNGGOL CENTRAL,02-25,WATERWAY POINT (West Wing),828761,103.9018000589,1.4057800345,83 PUNGGOL CENTRAL 02-25 WATERWAY POINT (West Wing)
628,GELARE,313,ORCHARD ROAD,B2-15,313@SOMERSET,238895,103.837986,1.301193,313 ORCHARD ROAD B2-15 313@SOMERSET
629,GELARE,333,BOON LAY WAY,2B-02,Safra Jurong,649848,103.70593,1.33512,333 BOON LAY WAY 2B-02 Safra Jurong
631,GELARE,51,YISHUN CENTRAL 1,01-06/K2,YISHUN 10 CINEMA COMPLEX,768794,103.83656,1.4297300000000002,51 YISHUN CENTRAL 1 01-06/K2 YISHUN 10 CINEMA COMPLEX
632,GELARE,1,WOODLANDS SQUARE,03-K-  06/07/08,CAUSEWAY POINT,738099,103.785984,1.435878,1 WOODLANDS SQUARE 03-K-  06/07/08 CAUSEWAY POINT
633,GELARE,201,VICTORIA STREET,05-10,BUGIS+,188067,103.8546405,1.2994919999999999,201 VICTORIA STREET 05-10 BUGIS+
634,GELARE,1,BUKIT BATOK CENTRAL LINK,01-06,WEST MALL,658713,103.749354,1.350018,1 BUKIT BATOK CENTRAL LINK 01-06 WEST MALL
635,GELARE,750,CHAI CHEE ROAD,01-32,TECHNOPARK @ CHAI CHEE,469000,103.922109,1.323666,750 CHAI CHEE ROAD 01-32 TECHNOPARK @ CHAI CHEE
636,GELARE,11,Tanjong Katong Road,03-K1,KINEX SHOPPING MALL,437157,103.89443,1.31409,11 Tanjong Katong Road 03-K1 KINEX SHOPPING MALL
637,GELARE,1,SENGKANG SQUARE,01-46,COMPASS ONE,545078,103.8946200667,1.391930055,1 SENGKANG SQUARE 01-46 COMPASS ONE
638,GELARE,2,JURONG EAST STREET 21,01-22A,IMM BUILDING,609601,103.7464605,1.334988,2 JURONG EAST STREET 21 01-22A IMM BUILDING
639,GELARE,10,TAMPINES CENTRAL 1,04-K2/K3,TAMPINES ONE,529536,103.9450185,1.35432,10 TAMPINES CENTRAL 1 04-K2/K3 TAMPINES ONE
641,GLC RESTAURANT,121,UPPER PAYA LEBAR ROAD,,,534836,103.886496,1.3383,121 UPPER PAYA LEBAR ROAD  
642,Gloria Jean's Coffees,500,Jalan Sultan,,Hotel Boss,199020,103.8603600294,1.3055300404999999,500 Jalan Sultan  Hotel Boss
643,Gloria Jean's Coffees,41,Bencoolen Street,01-02,,189623,103.8499875,1.298997,41 Bencoolen Street 01-02 
644,GLORY CATERING,139,EAST COAST ROAD,,,428829,103.905072,1.306314,139 EAST COAST ROAD  
645,GO NASI PADANG (S13) @ NTUC FOODFARE (RIVERVALE MALL),11,Rivervale Crescent,-01,Rivervale Mall,545082,103.904226,1.392228,11 Rivervale Crescent -01 Rivervale Mall
646,GoGo Franks,63,JURONG WEST CENTRAL 3,03-89B,JURONG POINT,648886,103.7067075,1.339632,63 JURONG WEST CENTRAL 3 03-89B JURONG POINT
647,GoGo Franks,20,TAMPINES CENTRAL 1,01-02,TAMPINES MRT STATION,529538,103.945086,1.353483,20 TAMPINES CENTRAL 1 01-02 TAMPINES MRT STATION
648,GoGo Franks,53,ANG MO KIO AVENUE 3,B2-41,AMK HUB,569933,103.8484125,1.3691879999999998,53 ANG MO KIO AVENUE 3 B2-41 AMK HUB
649,GoGo Franks,391A,ORCHARD ROAD,B  2  -07-05-03,NGEE ANN CITY TOWER A,238873,103.83425,1.30245,391A ORCHARD ROAD B  2  -07-05-03 NGEE ANN CITY TOWER A
650,GoGo Franks,1,WOODLANDS SQUARE,,CAUSEWAY POINT,738099,103.785984,1.435878,1 WOODLANDS SQUARE  CAUSEWAY POINT
651,GoGo Franks,930,YISHUN AVENUE 2,B1-25,NORTHPOINT,769098,103.835979,1.429344,930 YISHUN AVENUE 2 B1-25 NORTHPOINT
652,Goh Chew Kee,500,Clemenceau Avenue North,01-19,Newton Food Centre,229495,103.8397545,1.3120560000000001,500 Clemenceau Avenue North 01-19 Newton Food Centre
653,GOLDILOCKS FRIED CHICKEN @ UNIVERSAL STUDIOS SINGAPORE (RWS),30,SENTOSA GATEWAY,01-332,,098269,103.8230145,1.2539609999999999,30 SENTOSA GATEWAY 01-332 
654,GOOD COFFEE PLEASE,1,JURONG EAST STREET 21,02-28,"TOWER A, NG TENG FONG GENERAL HOSPITAL",609606,103.7442825,1.334826,"1 JURONG EAST STREET 21 02-28 TOWER A, NG TENG FONG GENERAL HOSPITAL"
655,Good Old Days,60,SILOSO BEACH WALK,01-03/04,,098997,103.816944,1.251207,60 SILOSO BEACH WALK 01-03/04 
656,Goreng Pisang (S12) @ Cantine Paya Lebar Square,60,Paya Lebar Road,B1-51,Paya Lebar Square,409051,103.89258,1.3188149999999998,60 Paya Lebar Road B1-51 Paya Lebar Square
658,Grasso Coffee,11,RIVERVALE CRESCENT,0 1-17/18,RIVERVALE MALL,545082,103.904226,1.392228,11 RIVERVALE CRESCENT 0 1-17/18 RIVERVALE MALL
659,Grasso Coffee,1,IRVING PLACE,01-27/28,THE COMMERZE @ IRVING,369546,103.886433,1.336239,1 IRVING PLACE 01-27/28 THE COMMERZE @ IRVING
660,Green Delight Yong Tau Foo (S1) @ Food Republic City Square Mall,180,KITCHENER ROAD,04-31,City Square Mall,208539,103.856625,1.31139,180 KITCHENER ROAD 04-31 City Square Mall
661,Green Delights,3,Gateway Drive,B2-K15/16,Westgate,608532,103.742658,1.334133,3 Gateway Drive B2-K15/16 Westgate
662,Green Sky Fried Kway Teow,1,BEDOK ROAD,01-14,,469572,103.955481,1.320345,1 BEDOK ROAD 01-14 
663,Gurame Indonesian Restaurant Pte. Ltd.,11,CHANGI COAST WALK,,SAFRA RESORT SEA SPORTS CENTRE,499740,103.9775895,1.316268,11 CHANGI COAST WALK  SAFRA RESORT SEA SPORTS CENTRE
664,GURU'S BANANA LEAF CUISINE PTE LTD,1,CHANGI VILLAGE ROAD,01-2020,,500001,103.9880925,1.38861,1 CHANGI VILLAGE ROAD 01-2020 
665,GURU'S BANANA LEAF CUISINE PTE LTD,1,CHANGI VILLAGE ROAD,01-2018,,500001,103.9880925,1.38861,1 CHANGI VILLAGE ROAD 01-2018 
666,GURU'S BANANA LEAF CUISINE PTE LTD,19,SERANGOON NORTH AVENUE 5,02-03,,554913,103.872168,1.375524,19 SERANGOON NORTH AVENUE 5 02-03 
667,GW CHICKEN RICE (S3) @ FORK & SPOON TOA PAYOH,470,LORONG 6 TOA PAYOH,02-70,HDB HUB,310470,103.8493395,1.332036,470 LORONG 6 TOA PAYOH 02-70 HDB HUB
668,GW Chicken Rice (S6) @ Aiman Cafe,235,JURONG EAST STREET 21,01-320,,600235,103.7421585,1.339974,235 JURONG EAST STREET 21 01-320 
669,HAI KEE SEAFOOD,500,CLEMENCEAU AVENUE NORTH,01-78,NEWTON FOOD CENTRE,229495,103.8397545,1.3120560000000001,500 CLEMENCEAU AVENUE NORTH 01-78 NEWTON FOOD CENTRE
670,Hainanese Chicken Rice (S10) @ Kopitiam JCube,2,JURONG EAST CENTRAL 1,B1-19,JCube,609731,103.7401785,1.333269,2 JURONG EAST CENTRAL 1 B1-19 JCube
671,Hainanese Chicken Rice (S3) @ NTUC Foodfare Fairprice Hub,1,Joo Koon Circle,03-25,Fairprice Hub,629117,103.67899,1.32702,1 Joo Koon Circle 03-25 Fairprice Hub
672,Halal Section @ NTUC Fairprice,510,Bishan Street 13,01-520,,570510,103.8496905,1.348884,510 Bishan Street 13 01-520 
673,Halal Section @ NTUC Fairprice,11,RIVERVALE CRESCENT,03-01,RIVERVALE MALL,545082,103.904226,1.392228,11 RIVERVALE CRESCENT 03-01 RIVERVALE MALL
674,Halal Section @ NTUC Fairprice,133,NEW BRIDGE ROAD,B1-01,CHINATOWN POINT,059413,103.845213,1.285425,133 NEW BRIDGE ROAD B1-01 CHINATOWN POINT
675,Halal Section @ NTUC Fairprice,712,Ang Mo Kio Ave 6,01-4056,,560712,103.847085,1.371411,712 Ang Mo Kio Ave 6 01-4056 
676,Halal Section @ NTUC Fairprice,17,Petir Road,B2-67,Hillion Mall,678278,103.7637199988,1.3782500228,17 Petir Road B2-67 Hillion Mall
677,Halal Section @ NTUC Fairprice,1,Stadium Place,01-29,Kallang Wave Mall,397628,103.873149,1.303074,1 Stadium Place 01-29 Kallang Wave Mall
678,Halal Section @ NTUC Fairprice,50,Jurong Gateway Road,B1-21/22,JEM,608549,103.743261,1.332549,50 Jurong Gateway Road B1-21/22 JEM
679,Halal Section @ NTUC Fairprice,30,SEMBAWANG DRIVE,B  1  -01/02/03,SUN PLAZA,757713,103.8195,1.448199,30 SEMBAWANG DRIVE B  1  -01/02/03 SUN PLAZA
680,Halal Section @ NTUC Fairprice,23,Serangoon Central,03-01/02,Nex Mall,556083,103.872294,1.350765,23 Serangoon Central 03-01/02 Nex Mall
681,Halal Section @ NTUC Fairprice,168,PUNGGOL FIELD RD,03-01/02,PUNGGOL PLAZA,820168,103.91283,1.39419,168 PUNGGOL FIELD RD 03-01/02 PUNGGOL PLAZA
682,Halal Section @ NTUC Fairprice,135,JURONG EAST STREET 13,01-337,,600135,103.7371369195,1.3376421299,135 JURONG EAST STREET 13 01-337 
683,Halal Section @ NTUC Fairprice,63,Jurong West Central 3,03-01,,648331,103.70797,1.3412600000000001,63 Jurong West Central 3 03-01 
684,Halal Section @ NTUC Fairprice,100,HOUGANG AVE 10,01-01,KANG KAR MALL,538767,103.8942495,1.371708,100 HOUGANG AVE 10 01-01 KANG KAR MALL
685,Halal Section @ NTUC Fairprice,212,BEDOK NORTH STREET 1,01-147,,460212,103.93164,1.325943,212 BEDOK NORTH STREET 1 01-147 
686,Halal Section @ NTUC Fairprice,53,Amk Mo Kio ave 3,B2-26,AMK HUB,569933,103.8484125,1.3691879999999998,53 Amk Mo Kio ave 3 B2-26 AMK HUB
687,Halal Section @ NTUC Fairprice,4,Tampines central 5,B1-12,tampines mall,529510,103.944663,1.352592,4 Tampines central 5 B1-12 tampines mall
688,Halal Section @ NTUC Fairprice,3,SIMEI STREET 6,05-01,EASTPOINT MALL,528833,103.953384,1.342719,3 SIMEI STREET 6 05-01 EASTPOINT MALL
689,Halal Section @ NTUC Fairprice,460,ALEXANDRA ROAD,0 1-09/16,PSA BUILDING,119963,103.8012255,1.273563,460 ALEXANDRA ROAD 0 1-09/16 PSA BUILDING
690,Halal Section @ NTUC Fairprice,166,BUKIT MERAH CENTRAL,01-3531,BUKIT MERAH AREA OFFICE,150166,103.8176415,1.283121,166 BUKIT MERAH CENTRAL 01-3531 BUKIT MERAH AREA OFFICE
691,Halal Section @ NTUC Fairprice,192,LORONG 4 TOA PAYOH,01-672,,310192,103.850487,1.331667,192 LORONG 4 TOA PAYOH 01-672 
692,Halal Section @ NTUC Fairprice,8,Changi Business Park Ave 1,,,486018,103.963887,1.334826,8 Changi Business Park Ave 1  
693,Halal Section @ NTUC Fairprice,2,JOO CHIAT ROAD,01-1139,JOO CHIAT COMPLEX,420002,103.898763,1.315539,2 JOO CHIAT ROAD 01-1139 JOO CHIAT COMPLEX
694,Halal Section @ NTUC Fairprice,1,Hougang st 91,02-01,,528892,103.944677024,1.340865299,1 Hougang st 91 02-01 
695,Halal Section @ NTUC Fairprice,1,PASIR RIS CENTRAL STREET 3,B1-10,WHITESANDS,518457,103.9496355,1.372365,1 PASIR RIS CENTRAL STREET 3 B1-10 WHITESANDS
696,Halal Section @ NTUC Fairprice,51,Tampines Avenue 4,B1-01,Festive Mall@Our Tampines Hub,529684,103.9404105,1.353141,51 Tampines Avenue 4 B1-01 Festive Mall@Our Tampines Hub
697,Halims Fish Soup (S12) @ The Food Market Century Square,2,TAMPINES CENTRAL 5,03-19,CENTURY SQUARE,529509,103.9437855,1.352358,2 TAMPINES CENTRAL 5 03-19 CENTURY SQUARE
698,Halim's Fish Soup (S4) @Foodjunction Junction 8,9,BISHAN PLACE,04-01,JUNCTION 8 SHOPPING CENTRE,579837,103.8485655,1.350711,9 BISHAN PLACE 04-01 JUNCTION 8 SHOPPING CENTRE
699,Halim's Sliced Fish Soup (S12)@Foodjunction Eastpoint,3,SIMEI STREET 6,04-04,EASTPOINT MALL,528833,103.953384,1.342719,3 SIMEI STREET 6 04-04 EASTPOINT MALL
700,Handi Restaurant & Catering,42/44,SAM LEONG ROAD,,,207934,103.856571,1.309887,42/44 SAM LEONG ROAD  
701,Handmade Noodle & Fish Soup (S5) @ Bagus Harbourfront,1,MARITIME SQUARE,0  1-103/108,HARBOURFRONT CENTRE,099253,103.819437,1.26306,1 MARITIME SQUARE 0  1-103/108 HARBOURFRONT CENTRE
702,Handmade Noodle (R3A) @ Bagus Causeway Point,1,WOODLANDS SQUARE,07-03,CAUSEWAY POINT,738099,103.785984,1.435878,1 WOODLANDS SQUARE 07-03 CAUSEWAY POINT
703,Hanis,100,VICTORIA STREET,01-01,NATIONAL LIBRARY,188064,103.85382,1.29757,100 VICTORIA STREET 01-01 NATIONAL LIBRARY
704,Hanis,8,WILKIE ROAD,01-22,WILKIE EDGE,228095,103.8495105,1.30212,8 WILKIE ROAD 01-22 WILKIE EDGE
705,Hanis,1,Jurong East Street 21,02-09,TOWER A Ng Teng Fong General Hospital,609606,103.7442825,1.334826,1 Jurong East Street 21 02-09 TOWER A Ng Teng Fong General Hospital
706,Hanis,3,SIMEI STREET 6,01-14,EASTPOINT MALL,528833,103.953384,1.342719,3 SIMEI STREET 6 01-14 EASTPOINT MALL
707,HANNA'S FUSION & JAPANESE,1,ROCHOR CANAL ROAD,04-02F,SIM LIM SQUARE,188504,103.8530385,1.30302,1 ROCHOR CANAL ROAD 04-02F SIM LIM SQUARE
708,Happiness Sunbo Chicken Rice (S7) @ NTUC FoodFare KTPH,90,Yishun Central,01-12,Khoo Teck Puat Hospital,768828,103.83827,1.4238300000000002,90 Yishun Central 01-12 Khoo Teck Puat Hospital
709,HA-VEN GOURMET PIZZA FOCCACIA CAFE,40,WOODLANDS STREET 41,,SINGAPORE AMERICAN SCHOOL,738547,103.774473,1.425996,40 WOODLANDS STREET 41  SINGAPORE AMERICAN SCHOOL
